SALE TYPE,SOLD DATE,PROPERTY TYPE,ADDRESS,CITY,STATE OR PROVINCE,ZIP OR POSTAL CODE,PRICE,BEDS,BATHS,LOCATION,SQUARE FEET,LOT SIZE,YEAR BUILT,DAYS ON MARKET,$/SQUARE FEET,HOA/MONTH,STATUS,NEXT OPEN HOUSE START TIME,NEXT OPEN HOUSE END TIME,URL (SEE https://www.redfin.com/buy-a-home/comparative-market-analysis FOR INFO ON PRICING),SOURCE,MLS#,FAVORITE,INTERESTED,LATITUDE,LONGITUDE

MLS Listing,,Condo/Co-op,41 Via Huelva,San Clemente,CA,92673,1099000,3,2.5,Verano (VERA),1840,7514,2004,2,597,597,Active,March-1-2026 11:00 AM,March-1-2026 02:00 PM,https://www.redfin.com/CA/San-Clemente/41-Via-Huelva-92673/home/5979974,CRMLS,OC26025056,N,Y,33.4693256,-117.6035114
MLS Listing,,Condo/Co-op,98 Carlsbad Ln,Aliso Viejo,CA,92656,745000,2,2.0,Coronado (CORO),918,658990,1995,8,812,570,Active,February-28-2026 01:00 PM,February-28-2026 04:00 PM,https://www.redfin.com/CA/Aliso-Viejo/98-Carlsbad-Ln-92656/home/5607523,CRMLS,OC26035576,N,Y,33.5806797,-117.737097
MLS Listing,,Single Family Residential,16 Fosco St,Rancho Mission Viejo,CA,92694,1179000,3,2.5,Aria (ESARI),1827,2804,2018,11,645,357,Active,,,https://www.redfin.com/CA/Rancho-Mission-Viejo/16-Fosco-St-92694/home/143913107,CRMLS,OC26027043,N,Y,33.5438967,-117.594547
MLS Listing,,Condo/Co-op,2253 Martin #321,Irvine,CA,92612,653999,1,1.0,Metropolitan (MET),835,41728,1993,14,783,679,Active,February-28-2026 01:00 PM,February-28-2026 03:00 PM,https://www.redfin.com/CA/Irvine/2253-Martin-92612/unit-321/home/5555118,CRMLS,OC26030383,N,Y,33.6732123,-117.8582586
MLS Listing,,Single Family Residential,142 Marion Blvd,Fullerton,CA,92835,1300000,3,2.0,83 - Fullerton,1775,10000,1924,14,732,,Active,February-28-2026 01:00 PM,February-28-2026 04:00 PM,https://www.redfin.com/CA/Fullerton/142-Marion-Blvd-92835/home/4088511,CRMLS,SW26031362,N,Y,33.8885624,-117.9200662
MLS Listing,,Condo/Co-op,1154 Scholarship,Irvine,CA,92612,799900,2,2.0,Avenue One (AVE1),1052,,2006,17,760,600,Active,February-28-2026 01:00 PM,February-28-2026 04:00 PM,https://www.redfin.com/CA/Irvine/1154-Scholarship-92612/home/12255008,CRMLS,OC26028526,N,Y,33.668038,-117.851312
MLS Listing,,Condo/Co-op,89 Calle De Felicidad,Rancho Santa Margarita,CA,92688,849000,2,2.5,Los Abanicos (LOSA),911,18514,1996,17,932,201,Active,February-28-2026 01:00 PM,February-28-2026 04:00 PM,https://www.redfin.com/CA/Rancho-Santa-Margarita/89-Calle-de-Felicidad-92688/home/5232649,CRMLS,OC26026435,N,Y,33.6376648,-117.5947247
MLS Listing,,Condo/Co-op,21466 Cypresswood,Lake Forest,CA,92630,975000,3,2.5,Smoketree (ST),1526,,1983,17,639,530,Active,March-1-2026 01:00 PM,March-1-2026 04:00 PM,https://www.redfin.com/CA/Lake-Forest/21466-Cypresswood-92630/home/5743744,CRMLS,OC26029326,N,Y,33.6512694,-117.6902972
MLS Listing,,Single Family Residential,10212 Pua Dr,Huntington Beach,CA,92646,1550000,4,2.0,699 - Not Defined,1787,6210,1963,17,867,,Active,March-1-2026 01:00 PM,March-1-2026 04:00 PM,https://www.redfin.com/CA/Huntington-Beach/10212-Pua-Dr-92646/home/3815542,CRMLS,OC26021972,N,Y,33.6847047,-117.9501993
MLS Listing,,Single Family Residential,31981 Lazy Glen Ln,Trabuco Canyon,CA,92679,1199000,3,2.5,Other (OTHR),1678,5130,1985,18,715,145,Active,,,https://www.redfin.com/CA/Trabuco-Canyon/31981-Lazy-Glen-Ln-92679/home/5091598,CRMLS,OC26024897,N,Y,33.6525131,-117.5738664
MLS Listing,,Mobile/Manufactured Home,252 Mayflower Dr,Newport Beach,CA,92660,783000,2,2.0,Bayside Village (BAYV),1271,447156,2013,19,616,,Active,February-28-2026 02:30 PM,February-28-2026 05:30 PM,https://www.redfin.com/CA/Newport-Beach/252-Mayflower-Dr-92660/home/58552886,CRMLS,OC26022123,N,Y,33.6174558,-117.8988671
MLS Listing,,Condo/Co-op,1371 Oakmont Rd Unit 150K,Seal Beach,CA,90740,575000,2,1.0,Leisure World (LW),1150,,1968,21,500,588,Active,,,https://www.redfin.com/CA/Seal-Beach/1371-Oakmont-Rd-90740/unit-150K/home/174932617,CRMLS,OC26027779,N,Y,33.7694757,-118.088773
MLS Listing,,Single Family Residential,4231 W Hill Ave,Fullerton,CA,92833,1050000,5,2.0,Other (OTHR),1936,6000,1962,23,542,,Active,February-28-2026 12:00 AM,February-28-2026 11:59 PM,https://www.redfin.com/CA/Fullerton/4231-W-Hill-Ave-92833/home/3310548,CRMLS,OC26022004,N,Y,33.8617079,-117.982457
MLS Listing,,Single Family Residential,1446 Beechwood Dr,Brea,CA,92821,1450000,3,4.0,North Hills (NORH),2211,10974,1980,23,656,180,Active,,,https://www.redfin.com/CA/Brea/1446-Beechwood-Dr-92821/home/4139367,CRMLS,PW26024892,N,Y,33.9421721,-117.9073318
MLS Listing,,Multi-Family (2-4 Unit),1405 S Broadway,Santa Ana,CA,92707,1535000,6,4.0,Other (OTHR),3272,6098,1951,25,469,,Active,,,https://www.redfin.com/CA/Santa-Ana/1405-S-Broadway-92707/home/3082421,CRMLS,OC26025435,N,Y,33.7286751,-117.8695958
MLS Listing,,Single Family Residential,2207 Golden Cir,Newport Beach,CA,92660,2699000,4,2.5,Other (OTHR),3000,11761,1957,28,900,,Active,March-1-2026 01:00 PM,March-1-2026 04:00 PM,https://www.redfin.com/CA/Newport-Beach/2207-Golden-Cir-92660/home/3565991,CRMLS,OC26022565,N,Y,33.6550416,-117.8817275
MLS Listing,,Condo/Co-op,1345 Cabrillo Park Dr Unit Q02,Santa Ana,CA,92701,415000,1,1.0,Other (OTHR),696,475139,1977,28,596,455,Active,,,https://www.redfin.com/CA/Santa-Ana/1345-Cabrillo-Park-Dr-92701/unit-Q02/home/17473906,CRMLS,OC26022848,N,Y,33.757282,-117.840342
MLS Listing,,Townhouse,10403 Stratton Ct,Cypress,CA,90630,749900,4,2.5,Other (OTHR),1327,1161,1964,29,565,290,Active,,,https://www.redfin.com/CA/Cypress/10403-Stratton-Ct-90630/home/3971580,CRMLS,IG26020833,N,Y,33.8115857,-118.061065
MLS Listing,,Condo/Co-op,3049 Scholarship,Irvine,CA,92612,1799000,2,2.5,3000 The Plaza (3PLZ),2024,51705,2007,29,889,2049,Active,,,https://www.redfin.com/CA/Irvine/3049-Scholarship-92612/home/21930293,CRMLS,OC26020846,N,Y,33.667131,-117.85241
MLS Listing,,Single Family Residential,411 Parsons St,La Habra,CA,90631,979999,3,2.0,Other (OTHR),1604,5880,1958,30,611,,Active,February-28-2026 12:00 PM,February-28-2026 03:00 PM,https://www.redfin.com/CA/La-Habra/411-Parsons-St-90631/home/3108946,CRMLS,OC26018281,N,Y,33.9350635,-117.9759381
MLS Listing,,Condo/Co-op,17926 Irvine Blvd,Tustin,CA,92780,639000,2,2.0,Palmwood Gardens (PALG),1054,311663,1964,30,606,499,Active,March-1-2026 01:00 PM,March-1-2026 04:00 PM,https://www.redfin.com/CA/Tustin/17926-Irvine-Blvd-92780/home/5419180,CRMLS,OC26012948,N,Y,33.7481563,-117.8195198
MLS Listing,,Condo/Co-op,1064 Calle Del Cerro #1307,San Clemente,CA,92672,629000,2,2.0,Vista Pacifica (VP),877,53411,1986,31,717,609,Active,,,https://www.redfin.com/CA/San-Clemente/1064-Calle-del-Cerro-92672/unit-1307/home/5201465,CRMLS,OC25281774,N,Y,33.4467481,-117.598251
MLS Listing,,Condo/Co-op,12200 Montecito Rd Unit D301,Seal Beach,CA,90740,449000,1,1.0,Other (OTHR),729,402519,1969,36,616,495,Active,,,https://www.redfin.com/CA/Seal-Beach/12200-Montecito-Rd-90740/unit-D301/home/5534874,CRMLS,OC26013936,N,Y,33.785461,-118.074849
MLS Listing,,Single Family Residential,8291 San Helice Dr,Buena Park,CA,90620,987500,3,2.0,Other (OTHR),1585,6100,1955,36,623,,Active,,,https://www.redfin.com/CA/Buena-Park/8291-San-Helice-Cir-90620/home/3295096,CRMLS,FR26014113,N,Y,33.8420169,-118.0150779
MLS Listing,,Condo/Co-op,1301 Lasso Way #205,Ladera Ranch,CA,92694,665000,2,2.0,Serenity (SRNTY),1089,111338,2022,37,611,632,Active,,,https://www.redfin.com/CA/Ladera-Ranch/1301-Lasso-Way-92694/unit-205/home/188071245,CRMLS,OC26014987,N,Y,33.5231094,-117.586209
MLS Listing,,Single Family Residential,27858 Via Sarasate,Mission Viejo,CA,92692,953000,2,2.0,Casta Del Sol - Fiesta (CF),1503,3478,1976,38,634,603,Active,,,https://www.redfin.com/CA/Mission-Viejo/27858-Via-Sarasate-92692/home/5073278,CRMLS,OC26005936,N,Y,33.6122676,-117.6436258
MLS Listing,,Condo/Co-op,25701 View Pointe,Lake Forest,CA,92630,565000,2,1.0,White Oak (WO),957,209044,1983,39,590,510,Active,,,https://www.redfin.com/CA/Lake-Forest/25701-View-Pointe-92630/home/179469469,CRMLS,OC26011278,N,Y,33.6396256,-117.6799368
MLS Listing,,Single Family Residential,24882 Timberwood Way,Lake Forest,CA,92630,1775000,5,2.5,Woods (TW),2912,7100,1976,44,610,240,Active,,,https://www.redfin.com/CA/Lake-Forest/24882-Timberwood-Way-92630/home/4827098,CRMLS,OC26009532,N,Y,33.641502,-117.696044
MLS Listing,,Condo/Co-op,14 Corniche Unit A,Dana Point,CA,92629,855000,2,2.0,Monarch Hills Condos (MHC),1130,952561,1989,45,757,700,Active,,,https://www.redfin.com/CA/Dana-Point/14-Corniche-Dr-92629/unit-A/home/5706276,CRMLS,OC26007165,N,Y,33.4889164,-117.7123772
MLS Listing,,Condo/Co-op,5475 Twin Lakes Dr,Cypress,CA,90630,599900,2,1.5,Other (OTHR),1156,154996,1979,45,519,550,Active,,,https://www.redfin.com/CA/Cypress/5475-Twin-Lakes-Dr-90630/home/5575327,CRMLS,PW26003759,N,Y,33.8338847,-118.0381539
MLS Listing,,Condo/Co-op,403 Aura Dr,Costa Mesa,CA,92626,1474800,4,3.0,Other (OTHR),2225,160314,2017,52,663,255,Active,February-28-2026 01:00 PM,February-28-2026 04:00 PM,https://www.redfin.com/CA/Costa-Mesa/403-Aura-Dr-92626/home/167404937,CRMLS,OC26003133,N,Y,33.6686144,-117.9172481
MLS Listing,,Single Family Residential,730 S Stillwater,Anaheim,CA,92807,1466750,4,3.0,Other (OTHR),2563,7700,1977,58,572,193,Active,February-28-2026 01:00 PM,February-28-2026 04:00 PM,https://www.redfin.com/CA/Anaheim/730-S-Stillwater-Ln-92807/home/4336429,CRMLS,OC25278000,N,Y,33.8372186,-117.7659785
MLS Listing,,Vacant Land,10 Williams Canyon Rd,Williams Canyon,CA,92676,325000,,,699 - Not Defined,,975744,,66,,,Active,,,https://www.redfin.com/CA/Williams-Canyon/10-Williams-Canyon-Rd-92676/home/191549087,CRMLS,OC25276743,N,Y,33.7647,-117.584128
MLS Listing,,Single Family Residential,13541 Dean,Tustin,CA,92780,1500000,5,3.0,Other (OTHR),2020,7245,1964,67,743,,Active,February-28-2026 02:00 PM,February-28-2026 04:00 PM,https://www.redfin.com/CA/Tustin/13541-Dean-St-92780/home/3498338,CRMLS,PW25279391,N,Y,33.7366227,-117.8076782
MLS Listing,,Single Family Residential,3111 Gardenia,Yorba Linda,CA,92886,4500000,6,7.5,Pinnacle (PINC),6800,18730,2003,71,662,,Active,,,https://www.redfin.com/CA/Yorba-Linda/3111-Gardenia-Ln-92886/home/5849792,CRMLS,OC25276700,N,Y,33.9175995,-117.832549
MLS Listing,,Single Family Residential,337 E Chapman,Placentia,CA,92870,625000,2,2.5,Chapman Plaza (CHAP),1180,953,1980,75,530,430,Active,February-28-2026 01:00 PM,February-28-2026 04:00 PM,https://www.redfin.com/CA/Placentia/337-E-Chapman-Ave-92870/home/199651599,CRMLS,PW25266182,N,Y,33.8716978,-117.8649125
MLS Listing,,Single Family Residential,3575 Falconridge Rd,Yorba Linda,CA,92886,988888,3,2.0,Other (OTHR),1567,26875,1985,115,631,,Active,,,https://www.redfin.com/CA/Yorba-Linda/3575-Falconridge-Rd-92886/home/4165303,CRMLS,OC25252520,N,Y,33.9067765,-117.7750315
MLS Listing,,Multi-Family (5+ Unit),315 S Garnsey St,Santa Ana,CA,92701,1750000,5,5.0,Other (OTHR),3656,6098,1964,120,479,,Active,,,https://www.redfin.com/CA/Santa-Ana/315-S-Garnsey-St-92701/home/195517799,CRMLS,PW25250502,N,Y,33.7426683,-117.8751807
MLS Listing,,Condo/Co-op,510 Bluegrass Way,Ladera Ranch,CA,92694,920000,3,3.0,Other (OTHR),1605,,2024,121,573,997,Active,,,https://www.redfin.com/CA/Ladera-Ranch/510-Bluegrass-Way-92694/home/200333609,CRMLS,OC25246529,N,Y,33.525679,-117.576048
MLS Listing,,Single Family Residential,1313 N Crestlane Pl,Anaheim,CA,92805,1080000,4,2.0,Other (OTHR),1480,6882,1960,134,730,,Active,,,https://www.redfin.com/CA/Anaheim/1313-N-Crestlane-Pl-92805/home/3345158,CRMLS,FR25240372,N,Y,33.8532558,-117.8974487
MLS Listing,,Condo/Co-op,26 Helena #69,Irvine,CA,92604,1078800,3,2.5,Heritage Park (HP),1633,87480,1977,164,661,410,Active,,,https://www.redfin.com/CA/Irvine/26-Helena-92604/unit-69/home/5473458,CRMLS,OC25219849,N,Y,33.6977981,-117.7741447
MLS Listing,,Condo/Co-op,31608 Los Rios #147,San Juan Capistrano,CA,92675,560000,2,2.0,Capistrano Villa Apts (CVA),1012,,1978,169,553,469,Active,,,https://www.redfin.com/CA/San-Juan-Capistrano/31608-Los-Rios-St-92675/unit-147/home/5467092,CRMLS,OC25215192,N,Y,33.5038553,-117.664684
MLS Listing,,Condo/Co-op,2005 Via Mariposa W Unit B,Laguna Woods,CA,92637,650000,2,2.0,Other (OTHR),1317,4500,1968,1,494,997,Active,,,https://www.redfin.com/CA/Laguna-Woods/2005-Via-Mariposa-W-92637/unit-B/home/11902415,CRMLS,OC26040140,N,Y,33.6135145,-117.7187813
MLS Listing,,Single Family Residential,28404 Buena Vis,Mission Viejo,CA,92692,969000,3,3.0,Casta Del Sol - Carmel (CR),1740,3478,1985,1,557,623,Pre On-Market,,,https://www.redfin.com/CA/Mission-Viejo/28404-Buena-Vis-92692/home/5045744,CRMLS,PW26043179,N,Y,33.6238637,-117.6345696
MLS Listing,,Single Family Residential,20892 Porter Rnch,Trabuco Canyon,CA,92679,1429000,4,3.0,RR - Robinson Ranch,2439,5800,1992,1,586,232,Pre On-Market,,,https://www.redfin.com/CA/Trabuco-Canyon/20892-Porter-Ranch-Rd-92679/home/5116534,CRMLS,OC26041292,N,Y,33.659078,-117.563159
MLS Listing,,Condo/Co-op,247 Calliope St,Laguna Beach,CA,92651,1599999,3,2.0,The Village (VIL),1500,,1984,1,1067,840,Pre On-Market,,,https://www.redfin.com/CA/Laguna-Beach/247-Calliope-St-92651/home/180907515,CRMLS,LG26044417,N,Y,33.531174,-117.773161
MLS Listing,,Single Family Residential,2705 E Orange Grove Ave,Orange,CA,92867,1368000,4,2.0,Other (OTHR),1308,6120,1956,1,1046,,Pre On-Market,,,https://www.redfin.com/CA/Orange/2705-E-Orange-Grove-Ave-92867/home/4393554,CRMLS,PW26044428,N,Y,33.796151,-117.8246632
MLS Listing,,Single Family Residential,22 Cresta Del Sol,San Clemente,CA,92673,3850000,5,5.5,Sea Pointe Estates (SPE),5371,11050,1992,1,717,475,Pre On-Market,March-15-2026 01:00 PM,March-15-2026 04:00 PM,https://www.redfin.com/CA/San-Clemente/22-Cresta-del-Sol-92673/home/4974045,CRMLS,OC26044407,N,Y,33.4624213,-117.6460124
MLS Listing,,Condo/Co-op,52 Terrace Cir N,Laguna Niguel,CA,92677,648000,2,1.0,Beacon Hill Terrace (BHT),925,141708,1981,1,701,699,Pre On-Market,,,https://www.redfin.com/CA/Laguna-Niguel/52-Terrace-Cir-92677/home/5701220,CRMLS,LG26044374,N,Y,33.5033417,-117.705104
MLS Listing,,Mobile/Manufactured Home,235 S Beach Blvd #115,Anaheim,CA,92804,300000,2,1.0,Cherokee,1140,,1967,1,263,547,Active,March-1-2026 12:00 PM,March-1-2026 04:00 PM,https://www.redfin.com/CA/Anaheim/235-S-Beach-Blvd-92804/unit-115/home/51683672,CRMLS,OC26044408,N,Y,33.827926,-117.993625
MLS Listing,,Single Family Residential,29931 Happy Sparrow Ln,Laguna Niguel,CA,92677,1899000,3,3.0,Summit,2557,5355,1978,1,743,72,Active,March-7-2026 02:00 PM,March-7-2026 04:00 PM,https://www.redfin.com/CA/Laguna-Niguel/29931-Happy-Sparrow-Ln-92677/home/4931730,TheMLS,26656473,N,Y,33.5286673,-117.7218162
MLS Listing,,Single Family Residential,17 Rippling Strm,Irvine,CA,92603,3298000,4,2.0,Glen Patio Homes (PT),2367,10857,1976,1,1393,152,Pre On-Market,,,https://www.redfin.com/CA/Irvine/17-Rippling-Strm-92603/home/4742608,CRMLS,OC26044352,N,Y,33.6468272,-117.8094669
MLS Listing,,Single Family Residential,18 Sorrel,Lake Forest,CA,92630,2995000,5,5.5,Other (OTHR),4224,7639,2017,1,709,222,Pre On-Market,March-6-2026 10:00 AM,March-6-2026 02:00 PM,https://www.redfin.com/CA/Lake-Forest/18-Sorrel-92630/home/112722689,CRMLS,OC26044350,N,Y,33.6724873,-117.6758992
MLS Listing,,Single Family Residential,123 Calderon,Irvine,CA,92618,3560000,5,5.5,Other (OTHR),4676,7291,2016,1,761,235,Active,,,https://www.redfin.com/CA/Irvine/123-Calderon-92618/home/108244852,CRMLS,TR26044367,N,Y,33.6848776,-117.7338129
MLS Listing,,Single Family Residential,1261 Cabrillo Park Dr,Santa Ana,CA,92701,850000,2,2.0,Shady Hollow Patio Homes I (SHP1),1476,4275,1976,1,576,215,Active,March-1-2026 12:00 PM,March-1-2026 03:00 PM,https://www.redfin.com/CA/Santa-Ana/1261-Cabrillo-Park-Dr-92701/home/4475542,CRMLS,OC26043249,N,Y,33.7558198,-117.841237
MLS Listing,,Single Family Residential,23561 Via Ventura,Mission Viejo,CA,92692,1099000,2,2.0,Casta Del Sol - Pud (CS),1287,4211,1976,1,854,584,Pre On-Market,,,https://www.redfin.com/CA/Mission-Viejo/23561-Via-Ventura-92692/home/5072052,CRMLS,OC26044340,N,Y,33.6216085,-117.6413996
MLS Listing,,Condo/Co-op,74 Cinnamon Teal,Aliso Viejo,CA,92656,675000,2,2.0,Seagate Colony - Audubon (ASC),975,3097,1990,1,692,504,Active,March-1-2026 01:00 PM,March-1-2026 04:00 PM,https://www.redfin.com/CA/Aliso-Viejo/74-Cinnamon-Teal-92656/home/5609816,CRMLS,OC26042018,N,Y,33.60042,-117.7442002
MLS Listing,,Condo/Co-op,194 California Ct,Mission Viejo,CA,92692,635000,2,2.0,California Court (CALC),900,60717,1993,1,706,581,Active,March-7-2026 01:00 PM,March-7-2026 04:00 PM,https://www.redfin.com/CA/Mission-Viejo/194-California-Ct-92692/home/5656903,CRMLS,OC26044290,N,Y,33.658509,-117.640781
MLS Listing,,Single Family Residential,24222 Ontario,Lake Forest,CA,92630,1399000,4,2.0,Lake Forest Keys (LK),1570,3300,1976,1,891,320,Active,March-1-2026 12:00 PM,March-1-2026 03:00 PM,https://www.redfin.com/CA/Lake-Forest/24222-Ontario-Ln-92630/home/4822250,CRMLS,OC26044203,N,Y,33.6473852,-117.7084028
MLS Listing,,Mobile/Manufactured Home,1001 W Lambert Rd #SPC 129,La Habra,CA,90631,265000,2,2.0,Friendly village,1368,,1972,1,194,,Active,,,https://www.redfin.com/CA/La-Habra/1001-W-Lambert-Rd-90631/unit-129/home/113759737,CRMLS,OC26043538,N,Y,33.9265731,-117.9571515
MLS Listing,,Single Family Residential,2155 Temple Hls,Laguna Beach,CA,92651,6995000,5,6.5,Temple Hills (TH),4800,24263,1975,1,1457,,Active,,,https://www.redfin.com/CA/Laguna-Beach/2155-Temple-Hills-Dr-92651/home/4886974,CRMLS,OC26044188,N,Y,33.5454302,-117.7630582
MLS Listing,,Single Family Residential,221 Clear Fls,Irvine,CA,92602,6998000,7,7.0,OH - Orchard Hills,6290,9177,2018,1,1113,385,Pre On-Market,,,https://www.redfin.com/CA/Irvine/221-Clear-Fls-92602/home/143911428,CRMLS,OC26044317,N,Y,33.7561927,-117.7534991
MLS Listing,,Condo/Co-op,30 Shade Tree,Irvine,CA,92603,2850000,3,3.5,Canyon's Edge (CYNE),2438,387191,2003,1,1169,366,Active,March-1-2026 01:00 PM,March-1-2026 04:00 PM,https://www.redfin.com/CA/Irvine/30-Shade-Tree-92603/home/5943322,CRMLS,OC26003371,N,Y,33.6305306,-117.819384
MLS Listing,,Single Family Residential,21482 Countryside Dr,Lake Forest,CA,92630,2129000,3,2.0,Montbury On The Hill (MBY),1892,9200,1986,1,1125,200,Pre On-Market,,,https://www.redfin.com/CA/Lake-Forest/21482-Countryside-Dr-92630/home/4816814,CRMLS,OC26043962,N,Y,33.6507657,-117.6627646
MLS Listing,,Single Family Residential,1 Holly,Irvine,CA,92612,1925000,3,2.0,Parkside - Deane (PD),1663,5225,1974,1,1158,170,Active,February-28-2026 01:00 PM,February-28-2026 04:00 PM,https://www.redfin.com/CA/Irvine/1-Holly-St-92612/home/4708021,CRMLS,OC26032036,N,Y,33.6587918,-117.8107294
MLS Listing,,Condo/Co-op,541 Berry,La Habra,CA,90631,699000,2,1.5,87 - La Habra,1438,1763,1975,1,486,545,Active,,,https://www.redfin.com/CA/La-Habra/541-Berry-Way-90631/home/3105025,CRMLS,MB26038815,N,Y,33.927373,-117.96737
MLS Listing,,Vacant Land,524 E Avenida Pico,San Clemente,CA,92672,670000,,,Other (OTHR),,10829,,1,,,Active,,,https://www.redfin.com/CA/San-Clemente/524-E-Avenida-Pico-92672/home/147018560,CRMLS,OC26040462,N,Y,33.4378874,-117.6231999
MLS Listing,,Condo/Co-op,3065 N Torrey Pne,Orange,CA,92865,890000,3,2.5,RVB - Riverbend,1627,689640,2008,1,547,383,Pre On-Market,March-14-2026 01:00 PM,March-14-2026 04:00 PM,https://www.redfin.com/CA/Orange/3065-N-Torrey-Pine-Ln-92865/home/17470662,CRMLS,PW26044292,N,Y,33.8373771,-117.8556944
MLS Listing,,Single Family Residential,1714 Saint James Pl,Placentia,CA,92870,1095000,4,2.0,Placentia,1974,8050,1963,1,555,,Pre On-Market,,,https://www.redfin.com/CA/Placentia/1714-Saint-James-Pl-92870/home/4193783,TheMLS,26657365,N,Y,33.893059,-117.8730005
MLS Listing,,Condo/Co-op,8085 Scholarship,Irvine,CA,92612,3499000,2,3.0,The Plaza (5000 and 8000) (PLZA),2376,95173,2007,1,1473,2870,Active,,,https://www.redfin.com/CA/Irvine/8085-Scholarship-92612/home/12255045,CRMLS,OC26042716,N,Y,33.665882,-117.853113
MLS Listing,,Single Family Residential,21916 Shenandoah,Lake Forest,CA,92630,1095000,3,2.0,LN - Lake Forest North,1249,5500,1978,1,877,105,Pre On-Market,,,https://www.redfin.com/CA/Lake-Forest/21916-Shenandoah-Dr-92630/home/5112190,CRMLS,OC26044204,N,Y,33.6446263,-117.663936
MLS Listing,,Single Family Residential,2435 W Broadway,Anaheim,CA,92804,984999,3,2.0,Other (OTHR),1505,7000,1958,1,654,,Active,,,https://www.redfin.com/CA/Anaheim/2435-W-Broadway-92804/home/3586811,CRMLS,TR26043765,N,Y,33.8289945,-117.9694976
MLS Listing,,Condo/Co-op,24055 Paseo Del Lago #562,Laguna Woods,CA,92637,165000,2,2.0,Leisure World (LW),1100,,1974,1,150,3180,Active,,,https://www.redfin.com/CA/Laguna-Woods/24055-Paseo-del-Lago-92637/unit-562/home/5371516,CRMLS,OC26044263,N,Y,33.613335,-117.744348
MLS Listing,,Condo/Co-op,14 Alcoba,Irvine,CA,92614,1059000,3,2.5,Las Palmas (LP),1407,80880,1991,1,753,457,Active,,,https://www.redfin.com/CA/Irvine/14-Alcoba-92614/home/5552907,CRMLS,OC26041229,N,Y,33.6764513,-117.8298376
MLS Listing,,Condo/Co-op,13721 Alderwood Ln Unit 28 E M3,Seal Beach,CA,90740,305000,1,1.0,Leisure World (LW),600,8000,1962,1,508,619,Active,,,https://www.redfin.com/CA/Seal-Beach/13721-Alderwood-Ln-90740/unit-28E/home/88633434,CRMLS,RS26035960,N,Y,33.7628792,-118.0883265
MLS Listing,,Single Family Residential,16 Balustrade,Foothill Ranch,CA,92610,1225000,4,3.0,Crestview (FHCS),1663,3050,1997,1,737,110,Pre On-Market,March-7-2026 12:00 PM,March-7-2026 04:00 PM,https://www.redfin.com/CA/Foothill-Ranch/16-Balustrade-Pl-92610/home/4803220,CRMLS,OC26044206,N,Y,33.67974,-117.6507739
MLS Listing,,Condo/Co-op,3110 Via Serena South Unit P,Laguna Woods,CA,92637,428000,2,2.0,Other (OTHR),1145,,1972,1,374,909,Active,March-1-2026 01:00 PM,March-1-2026 03:00 PM,https://www.redfin.com/CA/Laguna-Woods/3110-Via-Serena-S-92637/unit-P/home/5330112,CRMLS,OC26044242,N,Y,33.6167249,-117.7330273
MLS Listing,,Single Family Residential,151 Fremont,Lake Forest,CA,92630,1788888,4,3.0,699 - Not Defined,2083,3668,2022,1,859,290,Active,February-28-2026 01:00 PM,February-28-2026 04:00 PM,https://www.redfin.com/CA/Lake-Forest/151-Fremont-92630/home/182269422,CRMLS,OC26044243,N,Y,33.6690422,-117.671191
MLS Listing,,Condo/Co-op,3289 San Amadeo Unit C,Laguna Woods,CA,92637,975000,3,2.0,Other (OTHR),1500,,1973,1,650,909,Active,February-28-2026 01:00 PM,February-28-2026 03:00 PM,https://www.redfin.com/CA/Laguna-Woods/3289-San-Amadeo-92637/unit-C/home/200651616,CRMLS,OC26044222,N,Y,33.6026167,-117.7448764
MLS Listing,,Single Family Residential,11532 Mac,Garden Grove,CA,92841,1058800,3,2.5,Other (OTHR),1162,7200,1955,1,911,,Active,,,https://www.redfin.com/CA/Garden-Grove/11532-Mac-St-92841/home/3646811,CRMLS,PW26044045,N,Y,33.7952118,-117.9790644
MLS Listing,,Condo/Co-op,319 Avenida Carmel Unit B,Laguna Woods,CA,92637,629000,2,1.5,Leisure World (LW),1300,,1965,1,484,827,Active,,,https://www.redfin.com/CA/Laguna-Woods/319-Avenida-Carmel-92637/unit-B/home/103683167,CRMLS,OC26038844,N,Y,33.6074315,-117.7202475
MLS Listing,,Condo/Co-op,133 Lugo Ln,Mission Viejo,CA,92692,948888,3,2.0,Saddleback Homes (SAD),1952,,2023,1,486,333,Active,February-28-2026 01:00 AM,February-28-2026 04:00 PM,https://www.redfin.com/CA/Mission-Viejo/133-Lugo-Ln-92692/home/194122591,CRMLS,OC26039983,N,Y,33.6608407,-117.63901
MLS Listing,,Single Family Residential,12162 Fieldgate,Garden Grove,CA,92841,1199000,4,3.0,"61 - N of Gar Grv, S Of Ball, E of Knott, W of Dal",1829,7200,1959,1,656,,Active,,,https://www.redfin.com/CA/Garden-Grove/12162-Fieldgate-St-92841/home/3635888,CRMLS,OC26030826,N,Y,33.785797,-117.9951778
MLS Listing,,Single Family Residential,1817 E Alcove,Anaheim,CA,92805,930000,4,2.0,Other (OTHR),1557,6000,1968,1,597,,Active,February-28-2026 12:00 PM,February-28-2026 04:00 PM,https://www.redfin.com/CA/Anaheim/1817-E-Alcove-Way-92805/home/3964524,CRMLS,PW26040661,N,Y,33.8212513,-117.8913999
MLS Listing,,Single Family Residential,22733 Islamare,Lake Forest,CA,92630,1580000,4,4.0,LN - Lake Forest North,2367,4300,1974,1,668,263,Active,February-28-2026 12:00 PM,February-28-2026 03:00 PM,https://www.redfin.com/CA/Lake-Forest/22733-Islamare-Ln-92630/home/4835272,CRMLS,OC26042269,N,Y,33.6331858,-117.7040679
MLS Listing,,Single Family Residential,54 Turnbury Ln,Irvine,CA,92620,1930000,4,3.5,NW - Northwood,2402,4240,1997,1,803,216,Active,February-28-2026 01:00 PM,February-28-2026 04:00 PM,https://www.redfin.com/CA/Irvine/54-Turnbury-Ln-92620/home/4791534,CRMLS,WS26032751,N,Y,33.7286835,-117.7549505
MLS Listing,,Single Family Residential,5562 Thelma Ave,La Palma,CA,90623,1021000,3,2.0,81 - La Palma,1335,5090,1972,1,765,,Active,February-28-2026 01:00 PM,February-28-2026 04:00 PM,https://www.redfin.com/CA/La-Palma/5562-Thelma-Ave-90623/home/4033962,CRMLS,RS26044004,N,Y,33.8506002,-118.0362231
MLS Listing,,Single Family Residential,2671 Saint Albans,Los Alamitos,CA,90720,1899000,3,2.0,Other (OTHR),2162,7920,1958,1,878,,Active,February-28-2026 12:00 PM,February-28-2026 04:00 PM,https://www.redfin.com/CA/Los-Alamitos/2671-Saint-Albans-Dr-90720/home/3376807,CRMLS,PW26043028,N,Y,33.7879884,-118.0875586
MLS Listing,,Condo/Co-op,"1820 Sunningdale Rd, M14 19K",Seal Beach,CA,90740,320000,2,1.0,Leisure World (LW),750,900,1963,1,427,506,Active,,,https://www.redfin.com/CA/Seal-Beach/1820-Sunningdale-Rd-90740/home/179464650,CRMLS,SW26027002,N,Y,33.7685714,-118.0811968
MLS Listing,,Single Family Residential,11411 Woodbury,Garden Grove,CA,92843,1025000,4,2.0,"66 - N of Blsa, S of GGrv, E of Brookhrst, W of Ha",1364,7276,1955,1,751,,Active,,,https://www.redfin.com/CA/Garden-Grove/11411-Woodbury-Rd-92843/home/3480406,CRMLS,OC26030861,N,Y,33.7639902,-117.9301848
MLS Listing,,Single Family Residential,24741 Stratton,Laguna Niguel,CA,92677,970000,2,2.5,LNSEA - Sea Country,1331,2080,1989,1,729,447,Active,,,https://www.redfin.com/CA/Laguna-Niguel/24741-Stratton-Ln-92677/home/4917786,CRMLS,PW26034295,N,Y,33.5233524,-117.6991243
MLS Listing,,Single Family Residential,590 Traverse Dr,Costa Mesa,CA,92626,1489000,4,3.0,Del Cerro (DELC),1799,7200,1965,1,828,,Active,,,https://www.redfin.com/CA/Costa-Mesa/590-Traverse-Dr-92626/home/4546696,CRMLS,OC26042921,N,Y,33.6866892,-117.8809803
MLS Listing,,Townhouse,22482 Caminito Esteban,Laguna Hills,CA,92653,680000,3,2.0,Laguna Village (LV),1320,567382,1975,1,515,540,Active,,,https://www.redfin.com/CA/Laguna-Hills/22482-Caminito-Esteban-92653/home/179469089,CRMLS,OC26040316,N,Y,33.6251968,-117.7374484
MLS Listing,,Single Family Residential,11268 Morgen Way,Cypress,CA,90630,799000,2,2.0,Cypress Village Gardens (CYGR),1203,2812,1974,1,664,400,Active,February-28-2026 12:30 PM,February-28-2026 04:30 PM,https://www.redfin.com/CA/Cypress/11268-Morgen-Way-90630/home/3944759,CRMLS,PW26028902,N,Y,33.7986507,-118.0183115
MLS Listing,,Single Family Residential,111 Spoke,Irvine,CA,92618,2660000,5,5.5,Other (OTHR),3250,5543,2017,1,818,240,Active,,,https://www.redfin.com/CA/Irvine/111-Spoke-92618/home/112718751,CRMLS,WS26040404,N,Y,33.6908494,-117.7315767
MLS Listing,,Single Family Residential,17641 Santa Maria,Fountain Valley,CA,92708,1100000,6,3.5,16 - Fountain Valley / Northeast HB,2431,7200,1963,1,452,,Active,February-28-2026 01:00 PM,February-28-2026 04:00 PM,https://www.redfin.com/CA/Fountain-Valley/17641-Santa-Maria-St-92708/home/3860798,CRMLS,PW26043789,N,Y,33.7064798,-117.9790597
MLS Listing,,Condo/Co-op,219 Seacountry Ln,Rancho Santa Margarita,CA,92688,899000,3,2.5,Sea Country (SEAC),1541,,1998,1,583,445,Active,,,https://www.redfin.com/CA/Rancho-Santa-Margarita/219-Seacountry-Ln-92688/home/5663754,CRMLS,OC26044207,N,Y,33.589163,-117.62984
MLS Listing,,Condo/Co-op,13601 Del Monte Dr Unit 54A,Seal Beach,CA,90740,468000,2,2.0,Leisure World (LW),1070,1070,1983,1,437,711,Active,,,https://www.redfin.com/CA/Seal-Beach/13601-Del-Monte-Dr-90740/unit-54A/home/200699960,CRMLS,PW26044193,N,Y,33.7659531,-118.0784988
MLS Listing,,Condo/Co-op,7100 Cerritos Ave #86,Stanton,CA,90680,428888,2,1.0,Edgewood Park (EDGP),825,226089,1971,1,520,275,Active,March-1-2026 12:00 PM,March-1-2026 02:00 PM,https://www.redfin.com/CA/Stanton/7100-Cerritos-Ave-90680/unit-86/home/5282331,CRMLS,PW26043311,N,Y,33.808813,-118.009116
MLS Listing,,Single Family Residential,18440 Tamarind,Fountain Valley,CA,92708,1699900,4,2.0,16 - Fountain Valley / Northeast HB,2438,7202,1964,1,697,,Pre On-Market,March-1-2026 12:00 AM,March-1-2026 11:59 PM,https://www.redfin.com/CA/Fountain-Valley/18440-Tamarind-St-92708/home/3822747,CRMLS,OC26041100,N,Y,33.6949888,-117.9609448
MLS Listing,,Condo/Co-op,10520 Lakeside Dr N Unit L,Garden Grove,CA,92840,429000,1,1.0,Lakeside I (LKS1),655,223555,1981,1,655,390,Active,,,https://www.redfin.com/CA/Garden-Grove/10520-Lakeside-Dr-N-92840/unit-L/home/5734604,CRMLS,OC26035515,N,Y,33.7797715,-117.9491099
MLS Listing,,Condo/Co-op,24055 Paseo Del Lago #311,Laguna Woods,CA,92637,139000,1,1.5,Leisure World (LW),915,486287,1974,1,152,2792,Active,,,https://www.redfin.com/CA/Laguna-Woods/24055-Paseo-del-Lago-92637/unit-311/home/5370578,CRMLS,OC26044164,N,Y,33.613335,-117.744348
MLS Listing,,Condo/Co-op,23 Via Prado,Rancho Santa Margarita,CA,92688,375000,1,1.0,Las Flores (R2) (LF),547,,1989,1,686,415,Active,,,https://www.redfin.com/CA/Rancho-Santa-Margarita/23-Via-Prado-92688/home/5224549,CRMLS,OC26043760,N,Y,33.6416029,-117.5874489
MLS Listing,,Single Family Residential,3 San Simeon,Laguna Niguel,CA,92677,3950000,5,4.0,Palmilla (PAL),4118,9800,1989,1,959,463,Pre On-Market,,,https://www.redfin.com/CA/Laguna-Niguel/3-San-Simeon-92677/home/4932454,CRMLS,PW26036038,N,Y,33.5350867,-117.7303374
MLS Listing,,Single Family Residential,27 Royal Tern,Aliso Viejo,CA,92656,1325000,3,2.5,AV - Aliso Viejo,1512,3000,1989,1,876,137,Pre On-Market,,,https://www.redfin.com/CA/Aliso-Viejo/27-Royal-Tern-Ln-92656/home/4851901,CRMLS,LG26044163,N,Y,33.5919488,-117.7480575
MLS Listing,,Condo/Co-op,23230 Dover,Yorba Linda,CA,92887,599999,2,2.5,Other (OTHR),1112,86702,1986,1,540,561,Active,February-28-2026 01:00 PM,February-28-2026 04:00 PM,https://www.redfin.com/CA/Yorba-Linda/23230-Dover-Ln-92887/home/179490792,CRMLS,CV26044011,N,Y,33.8719204,-117.7261137
MLS Listing,,Condo/Co-op,2144 Camino Laurel,San Clemente,CA,92673,1658899,4,3.0,Highland Light Village (HLV),2435,50745,1986,1,681,370,Pre On-Market,,,https://www.redfin.com/CA/San-Clemente/2144-Camino-Laurel-92673/home/200699822,CRMLS,LG26028712,N,Y,33.4479413,-117.6251458
MLS Listing,,Single Family Residential,24242 Davida,Laguna Niguel,CA,92677,1279000,3,2.5,Village Niguel Heights (VNH),1908,4000,1987,1,670,397,Active,February-28-2026 12:00 PM,February-28-2026 04:00 PM,https://www.redfin.com/CA/Laguna-Niguel/24242-Davida-92677/home/4874927,CRMLS,LG26044134,N,Y,33.5574959,-117.7066616
MLS Listing,,Single Family Residential,22102 Surfrider Ln,Huntington Beach,CA,92646,1850000,4,2.0,Newport West (NEWP),1657,7130,1963,1,1116,,Active,,,https://www.redfin.com/CA/Huntington-Beach/22102-Surfrider-Ln-92646/home/3555369,CRMLS,OC26043722,N,Y,33.6417568,-117.9686966
MLS Listing,,Townhouse,105 Lugo Ln,Mission Viejo,CA,92692,649900,1,1.5,MN - Mission Viejo North,887,,2023,1,733,333,Pre On-Market,March-7-2026 01:00 PM,March-7-2026 04:00 PM,https://www.redfin.com/CA/Mission-Viejo/105-Lugo-Ln-92692/home/194122598,CRMLS,OC26034027,N,Y,33.6605542,-117.6388856
MLS Listing,,Condo/Co-op,19092 Shorline Ln #5,Huntington Beach,CA,92648,756000,2,2.0,Pierpointe (PRPT),1064,49695,1980,1,711,524,Active,February-28-2026 02:00 PM,February-28-2026 04:00 PM,https://www.redfin.com/CA/Huntington-Beach/19092-Shoreline-Ln-92648/unit-5/home/5570711,CRMLS,OC26035900,N,Y,33.6852266,-117.9981251
MLS Listing,,Single Family Residential,14642 Birch,Westminster,CA,92683,1287000,3,2.5,Parkview Homes (PKVH),1731,4306,1999,1,744,67,Active,February-28-2026 12:00 PM,February-28-2026 04:00 PM,https://www.redfin.com/CA/Westminster/14642-Birch-St-92683/home/3437919,CRMLS,PW26043359,N,Y,33.7502727,-117.9737834
MLS Listing,,Condo/Co-op,24055 Paseo Del Lago #1201,Laguna Woods,CA,92637,59900,1,1.0,Leisure World (LW),625,625,1974,1,96,2791,Active,,,https://www.redfin.com/CA/Laguna-Woods/24055-Paseo-del-Lago-92637/unit-1201/home/5371141,CRMLS,OC26044114,N,Y,33.613335,-117.744348
MLS Listing,,Single Family Residential,113 Oakstone,Irvine,CA,92618,3629990,4,4.5,Other (OTHR),3220,3825,2025,1,1127,190,Active,February-28-2026 12:00 AM,February-28-2026 11:59 PM,https://www.redfin.com/CA/Irvine/113-Oakstone-92618/home/200226917,CRMLS,OC26044082,N,Y,33.6894276,-117.6986011
MLS Listing,,Single Family Residential,1 San Martin Way,Corona Del Mar,CA,92625,7849000,4,2.5,Spyglass Hill (SPYH),2716,13050,1973,1,2890,197,Active,,,https://www.redfin.com/CA/Corona-del-Mar/1-San-Martin-Way-92625/home/4733545,CRMLS,NP26038445,N,Y,33.6095493,-117.8479801
MLS Listing,,Single Family Residential,17782 Arbolada Way,Tustin,CA,92780,2279900,5,5.0,NTS - North Tustin,3157,10001,1991,1,722,,Active,February-28-2026 01:00 PM,February-28-2026 04:00 PM,https://www.redfin.com/CA/Tustin/17782-Arbolada-Way-92780/home/4484239,CRMLS,PW26042507,N,Y,33.7573827,-117.8219503
MLS Listing,,Single Family Residential,30882 Via Colinas,Trabuco Canyon,CA,92679,7425000,5,5.5,Forest (TF),7687,78408,1989,1,966,355,Active,,,https://www.redfin.com/CA/Trabuco-Canyon/30882-Via-Colinas-92679/home/5756630,CRMLS,OC26042025,N,Y,33.6192031,-117.5933095
MLS Listing,,Condo/Co-op,8415 Benjamin Dr,Huntington Beach,CA,92647,624990,2,1.0,Bayshore (BAYS),861,900,1971,1,726,280,Active,March-1-2026 01:00 PM,March-1-2026 04:00 PM,https://www.redfin.com/CA/Huntington-Beach/8415-Benjamin-Dr-92647/home/194258280,CRMLS,PW26043995,N,Y,33.7065883,-117.9818307
MLS Listing,,Single Family Residential,911 Darrell St,Costa Mesa,CA,92627,1095000,3,2.0,Sunshine Homes West (SUNW),1017,6000,1956,1,1077,,Pre On-Market,March-6-2026 11:00 AM,March-6-2026 02:00 PM,https://www.redfin.com/CA/Costa-Mesa/911-Darrell-St-92627/home/4563886,CRMLS,OC26042998,N,Y,33.6565241,-117.9369409
MLS Listing,,Single Family Residential,721 Crested Lark,Ladera Ranch,CA,92694,1410999,3,2.5,Botanica (BTNC),2065,4119,2024,1,683,304,Pre On-Market,,,https://www.redfin.com/CA/Ladera-Ranch/721-Crested-Lark-92694/home/200699298,CRMLS,OC26042478,N,Y,33.5276634,-117.584053
MLS Listing,,Multi-Family (2-4 Unit),716 N Harbor,Anaheim,CA,92805,998000,3,2.0,Other (OTHR),1730,11765,1946,1,577,,Active,,,https://www.redfin.com/CA/Anaheim/716-N-Harbor-Blvd-92805/home/3194777,CRMLS,NP26010678,N,Y,33.841507,-117.9215157
MLS Listing,,Single Family Residential,1632 S Songish St,Anaheim,CA,92804,1050000,4,2.0,79 - Anaheim West of Harbor,1308,7500,1954,1,803,,Active,March-1-2026 01:00 PM,March-1-2026 04:00 PM,https://www.redfin.com/CA/Anaheim/1632-S-Songish-St-92804/home/3608889,CRMLS,PW26043515,N,Y,33.807989,-117.954674
MLS Listing,,Single Family Residential,3144 Alta Laguna,Laguna Beach,CA,92651,4995000,3,4.5,North Laguna (NL),3768,7350,2008,1,1326,,Active,,,https://www.redfin.com/CA/Laguna-Beach/3144-Alta-Laguna-Blvd-92651/home/4885731,CRMLS,PW26043725,N,Y,33.5518676,-117.7557909
MLS Listing,,Single Family Residential,25631 Hampton,Laguna Niguel,CA,92677,1495000,4,2.0,Rolling Hills Fieldstone (RHF),2418,6200,1981,1,618,296,Active,,,https://www.redfin.com/CA/Laguna-Niguel/25631-Hampton-Dr-92677/home/4881706,CRMLS,OC26043989,N,Y,33.5537649,-117.6827392
MLS Listing,,Condo/Co-op,1649 W Lincoln #105,Anaheim,CA,92801,749900,2,2.5,Other (OTHR),1562,309366,2023,1,480,388,Active,,,https://www.redfin.com/CA/Anaheim/1649-W-Lincoln-Ave-92801/unit-105/home/182263683,CRMLS,RS26043448,N,Y,33.8340463,-117.9401076
MLS Listing,,Townhouse,7692 9th St #105,Buena Park,CA,90621,845000,3,2.5,Other (OTHR),1596,,2026,1,529,275,Active,,,https://www.redfin.com/CA/Buena-Park/7692-9th-St-90621/unit-105/home/200699148,CRMLS,IV26043755,N,Y,33.8650479,-117.9991003
MLS Listing,,Condo/Co-op,28 Brigmore Aisle,Irvine,CA,92603,2085000,3,3.5,Summit Towne Collection (TST),2547,24546,1990,1,819,730,Active,February-28-2026 02:00 PM,February-28-2026 04:00 PM,https://www.redfin.com/CA/Irvine/28-Brigmore-Aisle-92603/home/5711445,CRMLS,NP26005872,N,Y,33.644558,-117.806939
MLS Listing,,Single Family Residential,44 Drakes Bay Dr,Corona Del Mar,CA,92625,7398000,5,5.5,Spyglass Hill Custom (SPYC),4423,12805,2009,1,1673,228,Active,March-5-2026 11:00 AM,March-5-2026 02:00 PM,https://www.redfin.com/CA/Corona-del-Mar/44-Drakes-Bay-Dr-92625/home/4733873,CRMLS,OC26010469,N,Y,33.6108054,-117.8426797
MLS Listing,,Single Family Residential,12061 Nutwood,Garden Grove,CA,92840,949777,3,2.0,Other (OTHR),1394,7201,1956,1,681,,Active,,,https://www.redfin.com/CA/Garden-Grove/12061-Nutwood-St-92840/home/3391885,CRMLS,PW26043839,N,Y,33.7876332,-117.9502222
MLS Listing,,Condo/Co-op,156 Chandon,Laguna Niguel,CA,92677,889900,2,2.5,Chandon (MHC),1256,1356,1989,1,709,665,Active,February-28-2026 12:00 PM,February-28-2026 03:00 PM,https://www.redfin.com/CA/Laguna-Niguel/156-Chandon-92677/home/5388199,CRMLS,PW26043181,N,Y,33.5237491,-117.6892153
MLS Listing,,Single Family Residential,2007 Port Chelsea,Newport Beach,CA,92660,4500000,4,2.5,Harbor View Homes (HVHM),2324,7840,1970,1,1936,115,Pre On-Market,,,https://www.redfin.com/CA/Newport-Beach/2007-Port-Chelsea-Pl-92660/home/4718544,CRMLS,NP26036614,N,Y,33.6222139,-117.8521625
MLS Listing,,Condo/Co-op,1320 Knollwood Rd Unit 42F,Seal Beach,CA,90740,549000,2,1.5,Leisure World (LW),1150,,1960,1,477,588,Active,,,https://www.redfin.com/CA/Seal-Beach/1320-Knollwood-Rd-90740/unit-42F/home/103669887,CRMLS,PW26042515,N,Y,33.7662444,-118.0900476
MLS Listing,,Single Family Residential,30 Winslow St,Ladera Ranch,CA,92694,2588000,5,4.5,Wyeth (WYTH),4079,9250,1999,1,634,231,Active,February-28-2026 01:00 PM,February-28-2026 04:00 PM,https://www.redfin.com/CA/Ladera-Ranch/30-Winslow-St-92694/home/5780003,CRMLS,OC26040428,N,Y,33.5713676,-117.6396616
MLS Listing,,Condo/Co-op,18 Hillsdale,Newport Beach,CA,92660,3250000,4,3.5,Belcourt Terrace (BLTR),3476,99221,1984,1,935,1620,Active,,,https://www.redfin.com/CA/Newport-Beach/18-Hillsdale-Dr-92660/home/200123185,CRMLS,OC26040199,N,Y,33.636259,-117.8652687
MLS Listing,,Single Family Residential,3126 S Rita Way,Santa Ana,CA,92704,1395000,4,3.0,Republic Homes (REPB),2208,6240,1968,1,632,,Active,February-28-2026 01:00 PM,February-28-2026 04:00 PM,https://www.redfin.com/CA/Santa-Ana/3126-S-Rita-Way-92704/home/4531753,CRMLS,PW26043736,N,Y,33.705058,-117.8882019
MLS Listing,,Single Family Residential,9422 Nantucket Dr,Huntington Beach,CA,92646,1750000,5,3.0,Glen Mar (Shores) (GLEN),2620,6120,1963,1,668,,Active,February-28-2026 12:00 PM,February-28-2026 04:00 PM,https://www.redfin.com/CA/Huntington-Beach/9422-Nantucket-Dr-92646/home/3798133,CRMLS,OC26041020,N,Y,33.6774234,-117.9636387
MLS Listing,,Multi-Family (2-4 Unit),145 Avenida Pelayo,San Clemente,CA,92672,1549999,3,2.0,Other (OTHR),1410,4177,1955,1,1099,,Active,,,https://www.redfin.com/CA/San-Clemente/145-Avenida-Pelayo-92672/home/200624913,CRMLS,PW26042773,N,Y,33.4299675,-117.6244252
MLS Listing,,Townhouse,10779 Chere Ct,Fountain Valley,CA,92708,749990,2,1.5,Fountain Park (FTPK),1161,989,1974,1,646,399,Active,,,https://www.redfin.com/CA/Fountain-Valley/10779-Chere-Ct-92708/home/3520540,CRMLS,OC26043703,N,Y,33.7321582,-117.9409525
MLS Listing,,Single Family Residential,28296 Borgona,Mission Viejo,CA,92692,1024900,3,2.0,Casta Del Sol - Fiesta (CF),1503,3478,1980,1,682,606,Active,,,https://www.redfin.com/CA/Mission-Viejo/28296-Borgona-92692/home/5044371,CRMLS,OC26042420,N,Y,33.6205788,-117.6365297
MLS Listing,,Single Family Residential,625 Saint James Rd,Newport Beach,CA,92663,10695000,5,5.5,Newport Heights (NEWH),5222,8866,2021,1,2048,,Active,,,https://www.redfin.com/CA/Newport-Beach/625-Saint-James-Rd-92663/home/3246647,CRMLS,NP26043584,N,Y,33.6212006,-117.910334
MLS Listing,,Single Family Residential,2750 E Diana Ave,Anaheim,CA,92806,925000,3,2.0,Other (OTHR),1615,7205,1960,1,573,,Active,,,https://www.redfin.com/CA/Anaheim/2750-E-Diana-Ave-92806/home/4007045,CRMLS,OC26042539,N,Y,33.8317575,-117.8735932
MLS Listing,,Condo/Co-op,"1680 Monterey Rd., M2-10I",Seal Beach,CA,90740,379000,2,1.0,Leisure World (LW),900,1150,1962,1,421,586,Active,,,https://www.redfin.com/CA/Seal-Beach/1680-Monterey-Rd-90740/home/3424389,CRMLS,PW26041173,N,Y,33.7610915,-118.0823188
MLS Listing,,Condo/Co-op,1801 E Katella Ave #2049,Anaheim,CA,92805,520000,1,1.0,Other (OTHR),705,,2005,1,738,477,Active,,,https://www.redfin.com/CA/Anaheim/1801-E-Katella-Ave-92805/unit-2049/home/12257124,CRMLS,CV26039383,N,Y,33.8036348,-117.8905752
MLS Listing,,Single Family Residential,311 S Colfax,La Habra,CA,90631,699900,2,1.0,Other (OTHR),932,5400,1950,1,751,,Active,March-1-2026 01:00 PM,March-1-2026 04:00 PM,https://www.redfin.com/CA/La-Habra/311-S-Colfax-St-90631/home/4119379,CRMLS,CV26043275,N,Y,33.9294209,-117.9308721
MLS Listing,,Mobile/Manufactured Home,7652 Garfield Ave #49,Huntington Beach,CA,92648,309000,2,2.0,Huntington Mobile Estates,800,332684,2021,1,386,,Active,,,https://www.redfin.com/CA/Huntington-Beach/7652-Garfield-Ave-92648/unit-49/home/182249106,CRMLS,OC26043660,N,Y,33.685764,-117.99425
MLS Listing,,Single Family Residential,7 Carriage,Irvine,CA,92602,1988000,4,2.5,Amberwood (W.I.) (AMBW),2480,3915,1999,1,802,,Active,February-28-2026 01:00 PM,February-28-2026 04:00 PM,https://www.redfin.com/CA/Irvine/7-Carriage-Dr-92602/home/4793798,CRMLS,OC26041555,N,Y,33.7420929,-117.7715952
MLS Listing,,Townhouse,20 Navarre #134,Irvine,CA,92612,925000,2,1.5,RSJ Villas (JV),1145,117670,1978,1,808,599,Active,February-28-2026 01:00 PM,February-28-2026 03:00 PM,https://www.redfin.com/CA/Irvine/20-Navarre-92612/unit-134/home/5503590,CRMLS,OC26019964,N,Y,33.6651383,-117.8296076
MLS Listing,,Single Family Residential,53 Sweet Bay,Irvine,CA,92603,3480000,3,2.5,Fiore (FIOR),2595,4916,2004,1,1341,658,Active,February-28-2026 01:00 PM,February-28-2026 04:00 PM,https://www.redfin.com/CA/Irvine/53-Sweet-Bay-92603/home/5900259,CRMLS,OC26042914,N,Y,33.6280145,-117.8100628
MLS Listing,,Single Family Residential,8109 E Bailey,Anaheim,CA,92808,2475000,5,4.5,Summit Pointe (SMPT),4247,10560,1991,1,583,335,Active,February-28-2026 01:00 PM,February-28-2026 04:00 PM,https://www.redfin.com/CA/Anaheim/8109-E-Bailey-Way-92808/home/4294613,CRMLS,PW26043389,N,Y,33.8503361,-117.7351694
MLS Listing,,Single Family Residential,314 S Benwood,Anaheim,CA,92804,825000,3,1.5,79 - Anaheim West of Harbor,1232,7200,1955,1,670,,Active,February-28-2026 01:00 PM,February-28-2026 03:30 PM,https://www.redfin.com/CA/Anaheim/314-S-Benwood-Dr-92804/home/3577379,CRMLS,PW26039639,N,Y,33.8274057,-117.985568
MLS Listing,,Single Family Residential,32352 Ridgeway,Laguna Niguel,CA,92677,1999000,4,3.0,Quissett Bay (QB),2614,5760,1987,1,765,293,Active,February-28-2026 02:30 PM,February-28-2026 04:30 PM,https://www.redfin.com/CA/Laguna-Niguel/32352-Ridgeway-Ave-92677/home/4959225,CRMLS,OC26041888,N,Y,33.4938017,-117.7105551
MLS Listing,,Single Family Residential,7775 E Bridgewood,Anaheim,CA,92808,2480000,4,4.5,Anaheim Hills Estates (ANHI),4057,26600,1995,1,611,385,Active,,,https://www.redfin.com/CA/Anaheim/7775-E-Bridgewood-Dr-92808/home/4296250,CRMLS,RS26034276,N,Y,33.8588731,-117.7455994
MLS Listing,,Single Family Residential,6122 Anthony Ave,Garden Grove,CA,92845,1198000,5,2.0,47 - Garden Park,2515,6000,1963,1,476,,Active,,,https://www.redfin.com/CA/Garden-Grove/6122-Anthony-Ave-92845/home/3628592,CRMLS,PW26041015,N,Y,33.7747812,-118.0263165
MLS Listing,,Condo/Co-op,9011 Cerise Ln #129,Cypress,CA,90630,440000,1,1.0,699 - Not Defined,763,,2024,1,577,560,Active,,,https://www.redfin.com/CA/Cypress/9011-Cerise-Ln-90630/unit-129/home/200696423,CRMLS,OC26029902,N,Y,33.8255468,-118.0441075
MLS Listing,,Single Family Residential,3702 Mercado Dr,Brea,CA,92823,1877000,3,3.5,Other (OTHR),3166,5419,2017,1,593,470,Active,,,https://www.redfin.com/CA/Brea/3702-Mercado-Dr-92823/home/143913904,CRMLS,CV26043458,N,Y,33.9105506,-117.8449934
MLS Listing,,Condo/Co-op,35 Garrison Loop,Ladera Ranch,CA,92694,840000,3,2.5,Chambray (CHMB),1511,458173,2001,1,556,652,Pre On-Market,,,https://www.redfin.com/CA/Ladera-Ranch/35-Garrison-Loop-92694/home/5843307,CRMLS,RS26043431,N,Y,33.5616147,-117.6487851
MLS Listing,,Condo/Co-op,13920 Thunderbird Dr,Seal Beach,CA,90740,309000,1,1.0,Leisure World (LW),740,,1961,1,418,586,Active,,,https://www.redfin.com/CA/Seal-Beach/13920-Thunderbird-Dr-90740/home/49702857,CRMLS,SR26029814,N,Y,33.7603471,-118.0799227
MLS Listing,,Single Family Residential,29 Calle Verano,Rancho Santa Margarita,CA,92688,1079000,3,2.5,California Tesoro (CATS),1574,3200,1994,1,686,91,Active,,,https://www.redfin.com/CA/Rancho-Santa-Margarita/29-Calle-Verano-92688/home/5066829,CRMLS,SR26035476,N,Y,33.6220898,-117.6123508
MLS Listing,,Single Family Residential,1221 Carlton,Santa Ana,CA,92707,915000,3,2.0,Other (OTHR),1233,6095,1950,1,742,,Active,March-1-2026 12:00 PM,March-1-2026 03:00 PM,https://www.redfin.com/CA/Santa-Ana/1221-Carlton-Pl-92707/home/3095259,CRMLS,OC26043457,N,Y,33.7225736,-117.8841292
MLS Listing,,Single Family Residential,30 Santa Inez,Rancho Santa Margarita,CA,92688,1699999,5,4.0,Lyon Monterrey (LYMR),3223,4320,2000,1,527,254,Active,February-28-2026 01:00 PM,February-28-2026 04:00 PM,https://www.redfin.com/CA/Rancho-Santa-Margarita/30-Santa-Inez-92688/home/5782397,CRMLS,OC26035303,N,Y,33.6294519,-117.6103634
MLS Listing,,Condo/Co-op,3580 W Sweetbay Ct Unit B,Anaheim,CA,92804,479900,1,1.0,Evergreen Village (EVRG),798,871,1985,1,601,496,Active,,,https://www.redfin.com/CA/Anaheim/3580-W-Sweetbay-Ct-92804/unit-B/home/5542866,CRMLS,OC26043464,N,Y,33.8127648,-118.0113811
MLS Listing,,Single Family Residential,2401 Foxdale,La Habra,CA,90631,980000,4,2.0,87 - La Habra,1643,6405,1956,1,596,,Active,March-7-2026 12:00 PM,March-7-2026 03:00 PM,https://www.redfin.com/CA/La-Habra/2401-Foxdale-Ave-90631/home/3109172,CRMLS,OC26038337,N,Y,33.9390665,-117.9732477
MLS Listing,,Single Family Residential,327 62nd St,Newport Beach,CA,92663,2745000,3,2.0,Newport Shores (NEWS),1477,2520,1960,1,1858,58,Active,February-28-2026 02:00 PM,February-28-2026 04:00 PM,https://www.redfin.com/CA/Newport-Beach/327-62nd-St-92663/home/3232238,CRMLS,NP26042960,N,Y,33.6284437,-117.9478884
MLS Listing,,Townhouse,112 Cameray Hts,Laguna Niguel,CA,92677,1100000,2,2.5,Cameray Pointe (BB) (BCP),1643,,1991,1,670,515,Active,,,https://www.redfin.com/CA/Laguna-Niguel/112-Cameray-Hts-92677/home/5386855,CRMLS,TR26042391,N,Y,33.5022724,-117.691627
MLS Listing,,Condo/Co-op,21464 San Bernardo,Mission Viejo,CA,92692,780000,2,2.0,Palmia - Courts 2 (PTC2),1387,,1995,1,562,823,Active,,,https://www.redfin.com/CA/Mission-Viejo/21464-San-Bernardo-92692/home/5416638,CRMLS,OC26023011,N,Y,33.650326,-117.625709
MLS Listing,,Single Family Residential,28372 La Falda,Laguna Niguel,CA,92677,1945000,4,3.0,Fieldstone Collection I (FC),2288,6000,1985,1,850,191,Pre On-Market,,,https://www.redfin.com/CA/Laguna-Niguel/28372-La-Falda-92677/home/4883623,CRMLS,OC26034232,N,Y,33.5507723,-117.6821097
MLS Listing,,Condo/Co-op,1200 Pacific Coast Hwy #102,Huntington Beach,CA,92648,909000,2,2.0,15 - West Huntington Beach,1046,81457,1987,1,869,700,Pre On-Market,,,https://www.redfin.com/CA/Huntington-Beach/1200-Pacific-Coast-Hwy-92648/unit-102/home/5713944,CRMLS,OC26042728,N,Y,33.6623482,-118.0081869
MLS Listing,,Single Family Residential,49 Lagunita Dr,Laguna Beach,CA,92651,13950000,4,4.5,Lagunita (LA),3726,10500,1999,1,3744,317,Active,,,https://www.redfin.com/CA/Laguna-Beach/49-Lagunita-Dr-92651/home/4935499,CRMLS,LG26043075,N,Y,33.5196248,-117.7616298
MLS Listing,,Condo/Co-op,25223 Via Lido,Laguna Niguel,CA,92677,725000,2,2.0,Milano at Rancho Niguel (MLNO),1046,,1989,1,693,747,Active,February-28-2026 12:00 PM,February-28-2026 03:00 PM,https://www.redfin.com/CA/Laguna-Niguel/25223-Via-Lido-92677/home/7211286,CRMLS,OC26039196,N,Y,33.555011,-117.689305
MLS Listing,,Condo/Co-op,320 Villa Pt,Newport Beach,CA,92660,1699000,2,2.0,Villa Point (VILP),1340,379508,1990,1,1268,661,Active,March-1-2026 01:00 PM,March-1-2026 04:00 PM,https://www.redfin.com/CA/Newport-Beach/320-Villa-Point-Dr-92660/home/5722967,CRMLS,NP26042469,N,Y,33.61266,-117.88604
MLS Listing,,Single Family Residential,5771 Via Santana,Yorba Linda,CA,92887,1250000,3,2.0,Rancho Dominguez (RNDH),1565,6324,1978,1,799,4,Pre On-Market,,,https://www.redfin.com/CA/Yorba-Linda/5771-Via-Santana-92887/home/4270822,CRMLS,PW26038346,N,Y,33.8796601,-117.7642854
MLS Listing,,Condo/Co-op,13920 Thunderbird Dr Unit 007C,Seal Beach,CA,90740,309000,1,1.0,,,740,1961,1,,586,Active,,,https://www.redfin.com/CA/Seal-Beach/13920-Thunderbird-Dr-90740/unit-007C/home/200690921,GEMLS,202601389,N,Y,33.7607393,-118.081671
MLS Listing,,Single Family Residential,2820 Stromboli,Costa Mesa,CA,92626,2695000,4,2.5,Other (OTHR),2190,7500,1963,1,1231,,Active,March-1-2026 12:00 PM,March-1-2026 04:00 PM,https://www.redfin.com/CA/Costa-Mesa/2820-Stromboli-Rd-92626/home/3697679,CRMLS,PW26042650,N,Y,33.6732739,-117.9336946
MLS Listing,,Mobile/Manufactured Home,14362 BUSHARD St #17,Westminster,CA,92683,299900,3,2.0,champion  home builders inc,1608,1618,2013,1,187,1725,Active,,,https://www.redfin.com/CA/Westminster/14362-Bushard-St-92683/unit-17/home/58552383,CRMLS,PW26043064,N,Y,33.754058,-117.96198
MLS Listing,,Single Family Residential,12652 Laux Ave,Garden Grove,CA,92840,925000,3,2.0,Other (OTHR),1041,7210,1954,1,889,,Active,,,https://www.redfin.com/CA/Garden-Grove/12652-Laux-Ave-92840/home/3955212,CRMLS,SW26042791,N,Y,33.7806985,-117.9123504
MLS Listing,,Condo/Co-op,1822 W Bushell St,Anaheim,CA,92805,1100000,4,3.5,Other (OTHR),1913,,2023,1,575,300,Active,,,https://www.redfin.com/CA/Anaheim/1822-W-Bushell-St-92805/home/182250897,CRMLS,PW26043377,N,Y,33.809941,-117.907661
MLS Listing,,Condo/Co-op,807 Buena Vis Unit C,San Clemente,CA,92672,2495000,2,2.0,Bluffs (BLFS),1886,10733,1982,1,1323,300,Active,February-28-2026 12:00 PM,February-28-2026 04:00 PM,https://www.redfin.com/CA/San-Clemente/807-Buena-Vis-92672/unit-C/home/179322656,CRMLS,SB26042680,N,Y,33.425243,-117.6256754
MLS Listing,,Single Family Residential,6 Mountainbrook,Irvine,CA,92620,3580000,5,5.5,Fairmont (FAIR),3276,5250,1996,1,1093,262,Pre On-Market,,,https://www.redfin.com/CA/Irvine/6-Mountainbrook-92620/home/4789189,CRMLS,OC26043195,N,Y,33.7243005,-117.7581591
MLS Listing,,Single Family Residential,103 Villa Rdg,Irvine,CA,92602,2850000,4,3.0,OH - Orchard Hills,2532,4801,2019,1,1126,359,Pre On-Market,March-1-2026 12:00 AM,March-1-2026 11:59 PM,https://www.redfin.com/CA/Irvine/103-Villa-Rdg-92602/home/167379330,CRMLS,PW26039197,N,Y,33.7310589,-117.7410598
MLS Listing,,Single Family Residential,6584 Capers Way,Cypress,CA,90630,924000,3,2.5,Cypress Village Gardens (CYGR),1799,2345,1973,1,514,400,Active,February-28-2026 12:30 PM,February-28-2026 04:30 PM,https://www.redfin.com/CA/Cypress/6584-Capers-Way-90630/home/3944766,CRMLS,PW26027599,N,Y,33.7989984,-118.0180803
MLS Listing,,Single Family Residential,24 Marble Sands,Newport Beach,CA,92660,6660000,5,5.5,NV - East Bluff - Harbor View,4510,7939,1999,1,1477,475,Active,,,https://www.redfin.com/CA/Newport-Beach/24-Marble-Sands-92660/home/5765979,CRMLS,OC26030413,N,Y,33.6309772,-117.8521335
MLS Listing,,Single Family Residential,28344 Water Way,Silverado,CA,92676,835000,2,1.0,Silverado (SC),782,3900,1930,1,1068,,Active,March-7-2026 12:00 PM,March-7-2026 03:00 PM,https://www.redfin.com/CA/Silverado/28344-Water-Way-92676/home/5119754,CRMLS,OC26014156,N,Y,33.7460745,-117.6364825
MLS Listing,,Single Family Residential,900 Gainsborough Dr,Laguna Beach,CA,92651,8300000,4,5.0,Upper Diamond (UD),4069,17097,1981,1,2040,,Active,,,https://www.redfin.com/CA/Laguna-Beach/900-Gainsborough-Dr-92651/home/4895264,CRMLS,OC26040813,N,Y,33.5293186,-117.7652915
MLS Listing,,Condo/Co-op,98 Via Barcelona,Rancho Santa Margarita,CA,92688,729000,2,2.5,R2 - Rancho Santa Margarita Central,1154,8905,1999,1,632,487,Active,,,https://www.redfin.com/CA/Rancho-Santa-Margarita/98-Via-Barcelona-92688/home/5793875,CRMLS,OC26042735,N,Y,33.639035,-117.589565
MLS Listing,,Condo/Co-op,251 Follyhatch,Irvine,CA,92618,1360000,3,2.5,GP - Great Park,1963,153285,2016,1,693,420,Active,March-7-2026 02:00 PM,March-7-2026 04:00 PM,https://www.redfin.com/CA/Irvine/251-Follyhatch-92618/home/143913774,CRMLS,OC26042371,N,Y,33.69207,-117.734113
MLS Listing,,Condo/Co-op,6131 Salem Rd #263,Yorba Linda,CA,92887,600000,3,2.0,85 - Yorba Linda,1136,,1986,1,528,561,Active,,,https://www.redfin.com/CA/Yorba-Linda/6131-Salem-Rd-92887/unit-263/home/5531940,CRMLS,NP26041502,N,Y,33.872438,-117.722703
MLS Listing,,Townhouse,18044 Courreges Ct,Fountain Valley,CA,92708,899000,2,2.5,Shadow Lane (SHLN),1469,1739,1985,1,612,579,Active,March-1-2026 12:00 PM,March-1-2026 03:00 PM,https://www.redfin.com/CA/Fountain-Valley/18044-Courreges-Ct-92708/home/3553348,CRMLS,PW26039456,N,Y,33.7006358,-117.9795703
MLS Listing,,Condo/Co-op,2708 Via Colina,Fullerton,CA,92835,800000,3,2.5,83 - Fullerton,1296,276569,1973,1,617,618,Active,March-1-2026 01:00 PM,March-1-2026 04:00 PM,https://www.redfin.com/CA/Fullerton/2708-Via-Colina-92835/home/197822956,CRMLS,NP26041830,N,Y,33.9002439,-117.905372
MLS Listing,,Single Family Residential,18864 Cordata,Fountain Valley,CA,92708,1589500,5,2.5,Century Park (CPAR),2580,5800,1969,1,616,,Active,,,https://www.redfin.com/CA/Fountain-Valley/18864-Cordata-St-92708/home/3827369,CRMLS,PW26034569,N,Y,33.6887769,-117.964741
MLS Listing,,Condo/Co-op,7361 8th #4,Buena Park,CA,90621,679999,3,2.5,Other (OTHR),1201,20430,1992,1,566,280,Active,,,https://www.redfin.com/CA/Buena-Park/7361-8th-St-90621/unit-4/home/5247585,CRMLS,PW26042324,N,Y,33.8674306,-118.0046069
MLS Listing,,Single Family Residential,1541 Via Los Bonitos,La Habra,CA,90631,1649000,5,4.0,Country Hills East (CNHE),3139,7107,1973,1,525,131,Active,,,https://www.redfin.com/CA/La-Habra/1541-Via-Los-Bonitos-90631/home/4109750,CRMLS,PW26039450,N,Y,33.9115623,-117.944418
MLS Listing,,Single Family Residential,4650 Alder,Yorba Linda,CA,92886,2400000,5,3.0,85 - Yorba Linda,3148,24872,1987,1,762,,Active,February-28-2026 12:00 PM,February-28-2026 03:00 PM,https://www.redfin.com/CA/Yorba-Linda/4650-Alder-Ave-92886/home/4278352,CRMLS,PW26037570,N,Y,33.8975248,-117.7671019
MLS Listing,,Single Family Residential,17532 Montbury Cir,Huntington Beach,CA,92649,1825000,4,2.0,Calif. Classics By The Sea (CCBS),1717,6060,1973,1,1063,,Active,February-28-2026 01:00 PM,February-28-2026 04:00 PM,https://www.redfin.com/CA/Huntington-Beach/17532-Montbury-Cir-92649/home/3843095,CRMLS,OC26039062,N,Y,33.7075962,-118.028365
MLS Listing,,Single Family Residential,19 La Purisima,Rancho Santa Margarita,CA,92688,1592500,4,3.0,Estrella Vista (ESV),2712,5888,1992,1,587,243,Active,February-28-2026 11:00 AM,February-28-2026 03:00 PM,https://www.redfin.com/CA/Rancho-Santa-Margarita/19-La-Purisima-92688/home/5104887,CRMLS,OC26038960,N,Y,33.6438079,-117.6215772
MLS Listing,,Single Family Residential,116 11th,Huntington Beach,CA,92648,3150000,3,3.5,Downtown Area (DOWN),2986,2875,2006,1,1055,,Active,,,https://www.redfin.com/CA/Huntington-Beach/116-11th-St-92648/home/12248749,CRMLS,PW26042442,N,Y,33.6616549,-118.0068178
MLS Listing,,Condo/Co-op,2189 Via Mariposa E Unit P,Laguna Woods,CA,92637,245000,1,1.0,Leisure World (LW),675,,1969,1,363,826,Active,,,https://www.redfin.com/CA/Laguna-Woods/2189-Via-Mariposa-E-92637/unit-P/home/200688525,CRMLS,OC26042335,N,Y,33.6146064,-117.7156601
MLS Listing,,Condo/Co-op,10361 Garden Grove Blvd #39,Garden Grove,CA,92843,429900,1,1.0,Other (OTHR),710,110229,1989,1,605,411,Active,,,https://www.redfin.com/CA/Garden-Grove/10361-Garden-Grove-Blvd-92843/unit-39/home/5584016,CRMLS,PW26042516,N,Y,33.7745249,-117.9519128
MLS Listing,,Single Family Residential,1126 Naples,Placentia,CA,92870,1399000,5,3.0,Alta Placentia (ALPL),2144,6420,1969,1,653,,Pre On-Market,March-7-2026 12:00 PM,March-7-2026 04:00 PM,https://www.redfin.com/CA/Placentia/1126-Naples-Ave-92870/home/4206915,CRMLS,PW26037245,N,Y,33.8805602,-117.8535532
MLS Listing,,Single Family Residential,121 41st St,Newport Beach,CA,92663,8100000,4,5.0,West Newport Beach (WSNB),3060,2550,2017,2,2647,,Active,March-1-2026 01:00 PM,March-1-2026 04:00 PM,https://www.redfin.com/CA/Newport-Beach/121-41st-St-92663/home/112722919,CRMLS,OC26041191,N,Y,33.6191906,-117.9371885
MLS Listing,,Condo/Co-op,261 Siena,Lake Forest,CA,92630,1426000,4,3.5,699 - Not Defined,2401,,2021,2,594,385,Pre On-Market,March-7-2026 01:00 PM,March-7-2026 04:00 PM,https://www.redfin.com/CA/Lake-Forest/261-Siena-92630/home/182271102,CRMLS,TR26043107,N,Y,33.661693,-117.681927
MLS Listing,,Single Family Residential,26891 Preciados,Mission Viejo,CA,92691,1150000,3,2.0,La Paz (Central) (LP),1815,9025,1968,2,634,,Active,February-28-2026 01:00 PM,February-28-2026 04:00 PM,https://www.redfin.com/CA/Mission-Viejo/26891-Preciados-Dr-92691/home/5040834,CRMLS,OC26043321,N,Y,33.6019435,-117.6611982
MLS Listing,,Single Family Residential,4038 Germainder,Irvine,CA,92612,1795000,4,2.5,Village I (V1),2550,3681,1965,2,704,263,Active,February-28-2026 02:00 PM,February-28-2026 04:00 PM,https://www.redfin.com/CA/Irvine/4038-Germainder-Way-92612/home/4699020,CRMLS,OC26029085,N,Y,33.6676389,-117.8237755
MLS Listing,,Single Family Residential,1 Dolomiti,Newport Coast,CA,92657,6299998,5,4.5,Sausalito (SAUS),4160,9659,1999,2,1514,957,Active,February-28-2026 01:00 PM,February-28-2026 04:30 PM,https://www.redfin.com/CA/Newport-Coast/1-Dolomiti-92657/home/4749893,CRMLS,OC26039632,N,Y,33.6016546,-117.8136378
MLS Listing,,Condo/Co-op,4327 Blazing Star Way,Yorba Linda,CA,92886,1198000,4,3.5,Other (OTHR),1834,239754,2009,2,653,287,Active,March-7-2026 01:00 PM,March-7-2026 04:00 PM,https://www.redfin.com/CA/Yorba-Linda/4327-Blazing-Star-Way-92886/home/173438192,CRMLS,PW26041666,N,Y,33.8982488,-117.8137108
MLS Listing,,Mobile/Manufactured Home,2300 S Lewis St #143,Anaheim,CA,92802,239500,4,2.0,Other (OTHR),1573,833845,2021,2,152,,Active,,,https://www.redfin.com/CA/Anaheim/2300-S-Lewis-St-92802/unit-143/home/5131841,CRMLS,OC26041366,N,Y,33.791721,-117.895603
MLS Listing,,Single Family Residential,20591 Reef Ln,Huntington Beach,CA,92646,1599000,4,3.0,Shorcrest (SHOR),1881,6200,1966,2,850,,Active,February-28-2026 01:00 AM,February-28-2026 04:00 PM,https://www.redfin.com/CA/Huntington-Beach/20591-Reef-Ln-92646/home/3782844,CRMLS,OC26040411,N,Y,33.6636662,-117.957945
MLS Listing,,Single Family Residential,24892 Grissom,Laguna Hills,CA,92653,1695000,4,2.5,Meredith Hills (MH),2544,13000,1976,2,666,,Active,March-1-2026 01:00 PM,March-1-2026 04:00 PM,https://www.redfin.com/CA/Laguna-Hills/24892-Grissom-Rd-92653/home/4847767,CRMLS,NP26042411,N,Y,33.5922544,-117.6950393
MLS Listing,,Single Family Residential,2686 N Meredith,Orange,CA,92867,1988000,6,3.0,Other (OTHR),3211,24800,1990,2,619,159,Active,February-28-2026 03:00 PM,February-28-2026 07:00 PM,https://www.redfin.com/CA/Orange/2686-N-Meredith-St-92867/home/4326433,CRMLS,PW26035918,N,Y,33.8338689,-117.810056
MLS Listing,,Single Family Residential,22261 Clearbrook,Mission Viejo,CA,92692,2278000,4,4.5,Montage (MON),3520,6600,1989,2,647,311,Active,,,https://www.redfin.com/CA/Mission-Viejo/22261-Clearbrook-92692/home/5048354,CRMLS,OC26042263,N,Y,33.6391874,-117.6344812
MLS Listing,,Single Family Residential,500 Silver Cyn,Brea,CA,92821,1400000,3,2.5,Other (OTHR),2101,6000,1977,2,666,,Active,February-28-2026 02:00 PM,February-28-2026 04:00 PM,https://www.redfin.com/CA/Brea/500-Silver-Canyon-Way-92821/home/4146372,CRMLS,OC26041513,N,Y,33.9290275,-117.889054
MLS Listing,,Single Family Residential,20761 Mission Ln,Huntington Beach,CA,92646,1795000,5,3.0,Pacific Sands (Dean/Broc) (PSAN),2181,5800,1967,2,823,,Active,February-28-2026 01:00 PM,February-28-2026 03:00 PM,https://www.redfin.com/CA/Huntington-Beach/20761-Mission-Ln-92646/home/3783146,CRMLS,OC26042825,N,Y,33.6607769,-117.9805804
MLS Listing,,Single Family Residential,7 Clear Creek Ln,Laguna Hills,CA,92653,1498000,4,2.5,Woodwinds (WW),1769,4000,1997,2,847,115,Pre On-Market,,,https://www.redfin.com/CA/Laguna-Hills/7-Clear-Creek-Ln-92653/home/4861331,CRMLS,OC26043047,N,Y,33.5964432,-117.7147932
MLS Listing,,Single Family Residential,1770 W Goodhue Ave,Anaheim,CA,92804,1299000,4,3.0,699 - Not Defined,1950,9600,1959,2,666,,Active,,,https://www.redfin.com/CA/Anaheim/1770-W-Goodhue-Ave-92804/home/3606332,CRMLS,PW26043234,N,Y,33.816294,-117.9450981
MLS Listing,,Vacant Land,16902 Pacific Coast,Sunset Beach,CA,90742,3000000,,,699 - Not Defined,,2614,,2,,,Active,,,https://www.redfin.com/CA/Sunset-Beach/16902-PACIFIC-COAST-HWY-90742/home/173301225,CRMLS,NP26043229,N,Y,33.716765,-118.068724
MLS Listing,,Single Family Residential,28282 Zarza,Mission Viejo,CA,92692,1049900,3,2.0,MC - Mission Viejo Central,1472,3478,1980,2,713,619,Active,,,https://www.redfin.com/CA/Mission-Viejo/28282-Zarza-92692/home/5044452,CRMLS,PW26042985,N,Y,33.6182079,-117.6371188
MLS Listing,,Single Family Residential,636 Prosper Way,Mission Viejo,CA,92694,1770862,4,4.5,Other (OTHR),3129,4000,2026,2,566,246,Active,February-28-2026 11:00 AM,February-28-2026 04:00 PM,https://www.redfin.com/CA/Mission-Viejo/636-Prosper-WAY-92694/home/200573254,CRMLS,OC26043220,N,Y,33.520039,-117.574854
MLS Listing,,Single Family Residential,1205 Via Catalina,San Clemente,CA,92672,3199000,5,2.5,Other (OTHR),2561,6840,1965,2,1249,,Active,February-28-2026 02:00 PM,February-28-2026 04:00 PM,https://www.redfin.com/CA/San-Clemente/1205-Via-Catalina-92672/home/4991784,CRMLS,OC26038699,N,Y,33.4228602,-117.6050589
MLS Listing,,Condo/Co-op,2030 E Santa Clara Unit K2,Santa Ana,CA,92705,649000,3,2.0,NTS - North Tustin,1285,301450,1963,2,505,412,Active,February-28-2026 01:00 PM,February-28-2026 04:00 PM,https://www.redfin.com/CA/Santa-Ana/2030-E-Santa-Clara-Ave-92705/unit-K2/home/5355033,CRMLS,PW26034985,N,Y,33.7654875,-117.8370797
MLS Listing,,Single Family Residential,24596 Donna Ln,Lake Forest,CA,92630,1749000,4,3.0,LS - Lake Forest South,2722,5888,1978,2,643,92,Active,February-28-2026 01:00 PM,February-28-2026 04:00 PM,https://www.redfin.com/CA/Lake-Forest/24596-Donna-Ln-92630/home/4821250,CRMLS,OC26036761,N,Y,33.6403028,-117.7017393
MLS Listing,,Single Family Residential,27921 Atherston,Mission Viejo,CA,92692,1649000,4,3.0,Belvedere (BEL),2816,9375,1986,2,586,103,Active,February-28-2026 01:00 PM,February-28-2026 04:00 PM,https://www.redfin.com/CA/Mission-Viejo/27921-Atherston-92692/home/5051180,CRMLS,OC26037500,N,Y,33.5998898,-117.6424552
MLS Listing,,Single Family Residential,1701 E Balboa Blvd,Newport Beach,CA,92661,6800000,5,5.5,Balboa Peninsula Point (BLPP),3963,3375,2005,2,1716,,Active,February-28-2026 01:00 PM,February-28-2026 03:00 PM,https://www.redfin.com/CA/Newport-Beach/1701-E-Balboa-Blvd-92661/home/3240247,CRMLS,NP26042983,N,Y,33.5988173,-117.8880764
MLS Listing,,Single Family Residential,24931 Avenida Libre,Lake Forest,CA,92630,1695000,4,2.5,LS - Lake Forest South,2502,7875,1977,2,677,125,Active,,,https://www.redfin.com/CA/Lake-Forest/24931-Avenida-Libre-92630/home/4807678,CRMLS,OC26043151,N,Y,33.6556428,-117.6949034
MLS Listing,,Condo/Co-op,278 N Wilshire Unit B21,Anaheim,CA,92801,558500,2,2.0,Other (OTHR),1074,155985,1973,2,520,557,Active,February-28-2026 12:00 PM,February-28-2026 04:00 PM,https://www.redfin.com/CA/Anaheim/278-N-Wilshire-Ave-92801/unit-B-21/home/179294287,CRMLS,PW26040682,N,Y,33.8343926,-117.9327721
MLS Listing,,Single Family Residential,10565 Chinook Ave,Fountain Valley,CA,92708,1799000,4,3.0,Green Valley Park Royal (GVPR),2828,6315,1973,2,636,87,Active,February-28-2026 12:00 PM,February-28-2026 03:00 PM,https://www.redfin.com/CA/Fountain-Valley/10565-Chinook-Ave-92708/home/3866180,CRMLS,OC26015291,N,Y,33.7080658,-117.9445846
MLS Listing,,Mobile/Manufactured Home,751 Village Lk,Brea,CA,92821,199000,1,1.5,Lake Park,1050,615357,1981,2,190,,Active,,,https://www.redfin.com/CA/Brea/751-Village-Lake-Mall-92821/home/5122636,CRMLS,PW26043078,N,Y,33.9301218,-117.9169948
MLS Listing,,Single Family Residential,21 Ali Ln,Ladera Ranch,CA,92694,3999999,5,4.5,Arboledo (ARBL),4200,17768,2007,2,952,660,Active,,,https://www.redfin.com/CA/Ladera-Ranch/21-Ali-Ln-92694/home/5963018,CRMLS,OC26021739,N,Y,33.5362516,-117.6354292
MLS Listing,,Single Family Residential,27611 Vista De Dons,Capistrano Beach,CA,92624,1950000,4,3.0,Other (OTHR),2421,7250,1980,2,805,,Active,February-28-2026 11:00 AM,February-28-2026 04:00 PM,https://www.redfin.com/CA/Capistrano-Beach/27611-Vista-de-Dons-92624/home/5001792,CRMLS,NP26040659,N,Y,33.4491885,-117.6494833
MLS Listing,,Condo/Co-op,5499 Paseo Del Lago W Unit 3C,Laguna Woods,CA,92637,599000,3,2.0,Leisure World (LW),1656,,1978,2,362,938,Active,February-28-2026 12:00 AM,February-28-2026 03:00 PM,https://www.redfin.com/CA/Laguna-Woods/5499-Paseo-del-Lago-W-92637/unit-3C/home/5470625,CRMLS,OC26037565,N,Y,33.614764,-117.741787
MLS Listing,,Single Family Residential,1961 San Remo Dr,Laguna Beach,CA,92651,3495000,3,2.5,Temple Hills (TH),2430,7200,1972,2,1438,,Active,March-1-2026 01:00 PM,March-1-2026 04:00 PM,https://www.redfin.com/CA/Laguna-Beach/1961-San-Remo-Dr-92651/home/4889386,CRMLS,NP26043095,N,Y,33.5445569,-117.7653096
MLS Listing,,Single Family Residential,504 E Barkley,Orange,CA,92867,1225000,3,2.0,"72 - Orange & Garden Grove, E of Harbor, N of 22 F",1756,7650,1955,2,698,,Active,March-7-2026 01:00 PM,March-7-2026 04:00 PM,https://www.redfin.com/CA/Orange/504-E-Barkley-Ave-92867/home/4404248,CRMLS,PW26039172,N,Y,33.8014106,-117.848504
MLS Listing,,Single Family Residential,1516 E Ocean Front,Newport Beach,CA,92661,11199000,5,4.0,Balboa Peninsula Point (BLPP),3083,3720,1963,2,3633,,Active,March-1-2026 01:00 PM,March-1-2026 03:00 PM,https://www.redfin.com/CA/Newport-Beach/1516-E-Oceanfront-92661/home/3240071,CRMLS,NP26043115,N,Y,33.5977673,-117.8908134
MLS Listing,,Condo/Co-op,98 Pasto Rico,Rancho Santa Margarita,CA,92688,615000,2,2.0,Serabrisa (SRB),1032,108454,1989,2,596,668,Active,,,https://www.redfin.com/CA/Rancho-Santa-Margarita/98-Pasto-Rico-92688/home/5486100,CRMLS,OC26042882,N,Y,33.622093,-117.614402
MLS Listing,,Single Family Residential,26221 Avenida Deseo,Mission Viejo,CA,92692,1150000,4,2.0,Cordova Vista (CV),1538,7440,1968,2,748,,Active,February-28-2026 01:00 PM,February-28-2026 04:00 PM,https://www.redfin.com/CA/Mission-Viejo/26221-Avenida-Deseo-92691/home/5077418,CRMLS,OC26037395,N,Y,33.6145143,-117.6728273
MLS Listing,,Single Family Residential,9 Calle Larspur,Rancho Santa Margarita,CA,92688,1275000,3,2.5,Other (OTHR),2100,4500,1987,2,607,87,Active,March-1-2026 01:00 PM,March-1-2026 04:00 PM,https://www.redfin.com/CA/Rancho-Santa-Margarita/9-Calle-Larspur-92688/home/5092452,CRMLS,OC26043121,N,Y,33.6530335,-117.5779933
MLS Listing,,Townhouse,107 Sapphire #34,Irvine,CA,92602,1195000,3,2.5,Mandeville (MAND),1482,23262,2001,2,806,359,Active,February-28-2026 01:00 PM,February-28-2026 03:00 PM,https://www.redfin.com/CA/Irvine/107-Sapphire-92602/unit-34/home/5885076,CRMLS,OC26013814,N,Y,33.7295906,-117.7773325
MLS Listing,,Single Family Residential,3317 Topaz,Fullerton,CA,92831,749000,3,2.0,Fullerton Heights (FULH),1332,2850,1963,2,562,350,Active,March-1-2026 12:00 PM,March-1-2026 04:00 PM,https://www.redfin.com/CA/Fullerton/3317-Topaz-Ln-92831/home/4199718,CRMLS,DW26042872,N,Y,33.8861265,-117.8680398
MLS Listing,,Townhouse,24839-#4 Nueva Vis,Laguna Niguel,CA,92677,774900,2,2.5,Marin Colony (RN) (RNC),1204,60282,1986,2,644,450,Active,,,https://www.redfin.com/CA/Laguna-Niguel/24839-4-Nueva-Vista-Dr-92677/home/200684628,CRMLS,OC26040232,N,Y,33.541265,-117.695821
MLS Listing,,Condo/Co-op,7022 Solara Way,Westminster,CA,92683,889990,4,2.5,Other (OTHR),1698,,2025,2,524,361,Active,February-28-2026 10:30 AM,February-28-2026 04:30 PM,https://www.redfin.com/CA/Westminster/13552-Goldenwest-St-92683/home/176550375,CRMLS,OC26043073,N,Y,33.7651905,-118.0064633
MLS Listing,,Single Family Residential,31841 Via Faisan,Trabuco Canyon,CA,92679,2298000,5,4.5,Village (TV),4983,7140,1989,2,461,245,Active,February-28-2026 01:00 PM,February-28-2026 04:00 PM,https://www.redfin.com/CA/Trabuco-Canyon/31841-Via-Faisan-92679/home/5056068,CRMLS,OC26040743,N,Y,33.6185085,-117.5762158
MLS Listing,,Mobile/Manufactured Home,6301 Warner #53,Huntington Beach,CA,92647,275000,3,2.0,Sea Aira Estates,1320,,2005,2,208,,Active,,,https://www.redfin.com/CA/Huntington-Beach/6301-Warner-Ave-92647/unit-53/home/12250479,CRMLS,RS26041795,N,Y,33.7160539,-118.0175795
MLS Listing,,Single Family Residential,16050 Shasta St,Fountain Valley,CA,92708,1400000,4,2.0,699 - Not Defined,2031,7192,1965,2,689,,Pre On-Market,,,https://www.redfin.com/CA/Fountain-Valley/16050-Shasta-St-92708/home/3738444,CRMLS,OC26038605,N,Y,33.7303749,-117.9261979
MLS Listing,,Condo/Co-op,42 Concepcion St,Rancho Mission Viejo,CA,92694,769500,2,2.5,Modena (ESMOD),1453,1000,2019,2,530,357,Active,,,https://www.redfin.com/CA/Rancho-Mission-Viejo/42-Concepcion-St-92694/home/169484170,CRMLS,LG26042904,N,Y,33.547281,-117.599004
MLS Listing,,Single Family Residential,900 S Ridgecrest,Anaheim,CA,92807,969999,3,2.5,Lake Summit (LKSM),1652,4500,1976,2,587,273,Active,,,https://www.redfin.com/CA/Anaheim/900-S-Ridgecrest-Cir-92807/home/4336118,CRMLS,PW26041850,N,Y,33.8423899,-117.7467855
MLS Listing,,Condo/Co-op,142 Firefly,Irvine,CA,92618,1298828,3,3.5,Other (OTHR),1513,,2014,2,858,340,Active,February-28-2026 12:00 PM,February-28-2026 04:00 PM,https://www.redfin.com/CA/Irvine/142-Firefly-92618/home/112721888,CRMLS,PW26040010,N,Y,33.6996654,-117.7142969
MLS Listing,,Condo/Co-op,18721 Applewood Cir,Huntington Beach,CA,92646,735000,2,1.0,Seabreeze (SEBR),1015,,1973,2,724,610,Active,March-1-2026 01:00 PM,March-1-2026 04:00 PM,https://www.redfin.com/CA/Huntington-Beach/18721-Applewood-Dr-92646/home/200563692,CRMLS,OC26033660,N,Y,33.6913796,-117.983968
MLS Listing,,Single Family Residential,27881 Abadejo,Mission Viejo,CA,92692,1499000,5,3.0,New Castille (Central) (CA2),2143,10086,1976,2,699,91,Active,February-28-2026 01:00 PM,February-28-2026 04:00 PM,https://www.redfin.com/CA/Mission-Viejo/27881-Abadejo-92692/home/5072349,CRMLS,OC26040846,N,Y,33.6087246,-117.6440435
MLS Listing,,Single Family Residential,520 S Morningstar,Anaheim,CA,92808,1599990,4,2.5,Larkspur (LARK),2424,7750,1990,2,660,97,Pre On-Market,March-6-2026 03:00 PM,March-6-2026 06:00 PM,https://www.redfin.com/CA/Anaheim/520-S-Morningstar-Dr-92808/home/4292368,CRMLS,OC26041593,N,Y,33.8638143,-117.7317265
MLS Listing,,Single Family Residential,36 Bloomdale,Irvine,CA,92614,1995000,3,2.5,Parklane (WB) (PR),1971,4750,1985,2,1012,147,Active,March-4-2026 02:00 PM,March-4-2026 05:00 PM,https://www.redfin.com/CA/Irvine/36-Bloomdale-92614/home/4696200,CRMLS,OC26042662,N,Y,33.6721687,-117.7975118
MLS Listing,,Single Family Residential,1736 Bayport Way,Newport Beach,CA,92660,4695000,4,3.5,Bonnie Bay Highland Homes (UBHH),2816,8211,2015,2,1667,,Pre On-Market,,,https://www.redfin.com/CA/Newport-Beach/1736-Bayport-Way-92660/home/4601613,CRMLS,OC26043026,N,Y,33.6402935,-117.8999712
MLS Listing,,Single Family Residential,102 Trafalgar,San Clemente,CA,92672,2699900,5,4.0,Other (OTHR),3025,12798,2025,2,893,,Active,,,https://www.redfin.com/CA/San-Clemente/102-Trafalgar-Ln-92672/home/5006710,CRMLS,OC26043015,N,Y,33.4237501,-117.6103634
MLS Listing,,Condo/Co-op,30724 CALLE RESPLENDOR,San Juan Capistrano,CA,92675,815000,2,2.5,Casitas Capistrano (CT),1187,1499,1965,2,687,430,Pre On-Market,,,https://www.redfin.com/CA/San-Juan-Capistrano/30724-Calle-Resplendor-92675/home/4899958,CRMLS,OC26043024,N,Y,33.517262,-117.665247
MLS Listing,,Single Family Residential,2217 Laurel Pl,Newport Beach,CA,92663,6250000,4,4.5,Newport Heights (NEWH),3761,7342,2013,2,1662,,Active,February-28-2026 01:00 PM,February-28-2026 04:00 PM,https://www.redfin.com/CA/Newport-Beach/2217-Laurel-Pl-92663/home/4589869,CRMLS,NP26041468,N,Y,33.6251958,-117.9129966
MLS Listing,,Single Family Residential,3112 E Piru Ln,Brea,CA,92821,1250000,4,2.5,Blackstone (BKSTN),2198,3420,2013,2,569,328,Active,February-28-2026 10:00 AM,February-28-2026 04:00 PM,https://www.redfin.com/CA/Brea/3112-E-Piru-Ln-92821/home/45381482,CRMLS,PW26033259,N,Y,33.9259399,-117.8550674
MLS Listing,,Single Family Residential,16455 Ladona Cir,Huntington Beach,CA,92649,3570000,4,3.5,Humboldt Island (HHUM),2800,5000,1969,2,1275,,Active,February-28-2026 01:00 PM,February-28-2026 04:00 PM,https://www.redfin.com/CA/Huntington-Beach/16455-Ladona-Cir-92649/home/3867708,CRMLS,OC26038891,N,Y,33.7228473,-118.0620407
MLS Listing,,Condo/Co-op,23272 Copante,Mission Viejo,CA,92692,798880,3,2.0,"Finisterra Green """"Alta"""" (FGA)",1364,3200,1980,2,586,596,Active,February-28-2026 01:00 PM,February-28-2026 04:00 PM,https://www.redfin.com/CA/Mission-Viejo/23272-Copante-92692/home/180760782,CRMLS,OC26041443,N,Y,33.6248428,-117.6503209
MLS Listing,,Single Family Residential,25592 Goldenspring,Dana Point,CA,92629,2100000,4,2.5,Marlborough Seaside (MS),2370,6450,1984,2,886,,Active,March-1-2026 12:00 AM,March-1-2026 11:59 PM,https://www.redfin.com/CA/Dana-Point/25592-Goldenspring-Dr-92629/home/4953016,CRMLS,OC26029081,N,Y,33.4764269,-117.6836452
MLS Listing,,Condo/Co-op,25652 Rimgate Unit 6H,Lake Forest,CA,92630,459000,1,1.0,Trabuco Highlands (TH),625,267646,1981,2,734,305,Active,February-28-2026 12:00 PM,February-28-2026 04:00 PM,https://www.redfin.com/CA/Lake-Forest/25652-Rimgate-Dr-92630/unit-6H/home/5704660,CRMLS,PW26034608,N,Y,33.6450238,-117.6812358
MLS Listing,,Townhouse,20 Thunder Trl,Irvine,CA,92614,1499000,4,2.5,Woodbridge Reserve (WBRS),2281,235841,1980,2,657,697,Active,,,https://www.redfin.com/CA/Irvine/20-Thunder-Trl-92614/home/184033153,CRMLS,CV26039379,N,Y,33.6776235,-117.8093718
MLS Listing,,Condo/Co-op,"13730 Annandale Dr., M1-31F",Seal Beach,CA,90740,549000,2,1.5,Leisure World (LW),1000,1150,1962,2,549,518,Active,,,https://www.redfin.com/CA/Seal-Beach/13730-Annandale-Dr-90740/home/3424374,CRMLS,PW26036864,N,Y,33.7644405,-118.080182
MLS Listing,,Single Family Residential,766 Pelican,Laguna Beach,CA,92651,4650000,4,3.5,Portafina (PF),3869,17424,1988,2,1202,,Active,,,https://www.redfin.com/CA/Laguna-Beach/766-Pelican-Dr-92651/home/4933131,CRMLS,OC26042930,N,Y,33.5258352,-117.7565805
MLS Listing,,Condo/Co-op,129 Pathway,Irvine,CA,92618,1650000,4,3.0,Los Arboles (LOSA),2398,,2011,2,688,324,Active,February-28-2026 01:00 PM,February-28-2026 04:00 PM,https://www.redfin.com/CA/Irvine/129-Pathway-92618/home/45377576,CRMLS,OC26036747,N,Y,33.6937937,-117.714365
MLS Listing,,Condo/Co-op,13751 St Andrews Dr Unit 33j,Seal Beach,CA,90740,239000,1,1.0,Leisure World (LW),600,,1960,2,398,518,Active,,,https://www.redfin.com/CA/Seal-Beach/13751-Saint-Andrews-Dr-90740/unit-33j/home/200683188,CRMLS,PW26042765,N,Y,33.7631528,-118.08097
MLS Listing,,Single Family Residential,6 Whitecloud,Irvine,CA,92614,1688888,3,2.0,WB - Woodbridge,1440,4700,1979,2,1173,147,Pre On-Market,,,https://www.redfin.com/CA/Irvine/6-Whitecloud-92614/home/4693241,CRMLS,OC26042925,N,Y,33.673681,-117.807444
MLS Listing,,Condo/Co-op,6125 Cape Cod #37,Yorba Linda,CA,92887,669999,3,2.5,Village I (VIL1),1270,126216,1985,2,528,562,Active,,,https://www.redfin.com/CA/Yorba-Linda/6125-Cape-Cod-Ln-92887/unit-37/home/5531313,CRMLS,PW26042668,N,Y,33.8727843,-117.7267754
MLS Listing,,Single Family Residential,2 Ventada St,Ladera Ranch,CA,92694,2145000,4,4.5,Ventana (ESVENT),2746,5123,2017,2,781,299,Active,February-28-2026 01:00 PM,February-28-2026 04:00 PM,https://www.redfin.com/CA/Ladera-Ranch/2-Ventada-St-92694/home/112725616,CRMLS,OC26034075,N,Y,33.5324672,-117.6050561
MLS Listing,,Single Family Residential,25491 Gallup Cir,Laguna Hills,CA,92653,3495000,6,5.5,Nellie Gail (NG),5252,12000,1981,2,665,191,Active,February-28-2026 12:00 PM,February-28-2026 03:00 PM,https://www.redfin.com/CA/Laguna-Hills/25491-Gallup-Cir-92653/home/4863502,CRMLS,OC26041448,N,Y,33.5884482,-117.6849809
MLS Listing,,Single Family Residential,24346 Parkside E,Laguna Niguel,CA,92677,1175000,2,2.5,Park Niguel (PN),1785,2370,1974,2,658,499,Active,February-28-2026 01:00 PM,February-28-2026 03:00 PM,https://www.redfin.com/CA/Laguna-Niguel/24346-Parkside-Dr-E-92677/home/4922187,CRMLS,OC26041012,N,Y,33.5323529,-117.7048448
MLS Listing,,Condo/Co-op,400 N Acacia Ave Unit A17,Fullerton,CA,92831,379000,1,1.0,83 - Fullerton,677,,1965,2,560,450,Pre On-Market,,,https://www.redfin.com/CA/Fullerton/400-N-Acacia-Ave-92831/unit-A17/home/5943594,CRMLS,OC26042373,N,Y,33.8733565,-117.8981328
MLS Listing,,Condo/Co-op,409 Utica D34 Unit D34,Huntington Beach,CA,92648,615000,2,2.0,Brisas Del Mar (BRDM),867,75973,1993,2,709,724,Active,February-28-2026 12:00 PM,February-28-2026 03:00 PM,https://www.redfin.com/CA/Huntington-Beach/409-Utica-Ave-92648/unit-D34/home/5265773,CRMLS,OC26040639,N,Y,33.676096,-117.9934868
MLS Listing,,Single Family Residential,2331 Coffman Dr,Tustin,CA,92782,1999900,4,2.5,San Miguel (SNMG),2407,7500,1996,2,831,394,Active,February-28-2026 01:00 PM,February-28-2026 04:00 PM,https://www.redfin.com/CA/Tustin/2331-Coffman-Dr-92782/home/4759907,CRMLS,OC26042883,N,Y,33.7447503,-117.7853631
MLS Listing,,Single Family Residential,1115 N Richman Ave,Fullerton,CA,92835,1350000,4,3.0,Other (OTHR),2346,9225,1951,2,575,,Active,February-28-2026 12:00 PM,February-28-2026 04:00 PM,https://www.redfin.com/CA/Fullerton/1115-N-Richman-Ave-92835/home/3155133,CRMLS,PW26040859,N,Y,33.8844508,-117.9334231
MLS Listing,,Multi-Family (5+ Unit),207 Baltimore Ave,Huntington Beach,CA,92648,4400000,8,10.0,15 - West Huntington Beach,5237,6534,1963,2,840,,Active,,,https://www.redfin.com/CA/Huntington-Beach/207-Baltimore-Ave-92648/home/3145421,CRMLS,OC26040963,N,Y,33.6587149,-117.9961245
MLS Listing,,Single Family Residential,4764 Fir,Seal Beach,CA,90740,1450000,3,2.0,College Park (COLP),1869,5247,1966,2,776,,Active,February-28-2026 12:00 PM,February-28-2026 03:00 PM,https://www.redfin.com/CA/Seal-Beach/4764-Fir-Ave-90740/home/3926896,CRMLS,PW26042877,N,Y,33.7788269,-118.0463094
MLS Listing,,Single Family Residential,3051 Madeira,Costa Mesa,CA,92626,1925000,4,4.5,Other (OTHR),2851,6800,2027,2,675,,Active,,,https://www.redfin.com/CA/Costa-Mesa/3051-Madeira-Ave-92626/home/3694636,CRMLS,OC26042606,N,Y,33.6822037,-117.9312891
MLS Listing,,Single Family Residential,11782 Ardis Dr,Garden Grove,CA,92841,1159000,3,2.5,"62 - Garden Grove N of Chapman, W of Euclid",1610,7800,1955,2,720,,Active,February-28-2026 01:00 PM,February-28-2026 05:00 PM,https://www.redfin.com/CA/Garden-Grove/11782-Ardis-Dr-92841/home/3649710,CRMLS,PW26004395,N,Y,33.7914503,-117.9720696
MLS Listing,,Single Family Residential,10362 Monitor Dr,Huntington Beach,CA,92646,1474888,3,2.0,Glen Mar (Shores) (GLEN),1936,6200,1965,2,762,,Active,March-1-2026 12:00 PM,March-1-2026 04:00 PM,https://www.redfin.com/CA/Huntington-Beach/10362-Monitor-Dr-92646/home/3808975,CRMLS,OC25270369,N,Y,33.678964,-117.9471171
MLS Listing,,Single Family Residential,3125 La Sombra Way,Fullerton,CA,92835,1390000,4,2.5,Sunny Hills View Estates (SHVE),2335,11050,1965,2,595,,Active,February-28-2026 01:00 PM,February-28-2026 04:00 PM,https://www.redfin.com/CA/Fullerton/3125-La-Sombra-Way-92835/home/4106648,CRMLS,PW26040300,N,Y,33.9077575,-117.9426389
MLS Listing,,Single Family Residential,22995 Via San Juan,Mission Viejo,CA,92691,1335000,3,2.0,Barcelona (North) (BA),1786,6890,1974,2,747,,Active,February-28-2026 12:00 PM,February-28-2026 03:00 PM,https://www.redfin.com/CA/Mission-Viejo/22995-Via-San-Juan-92691/home/5070271,CRMLS,OC26042320,N,Y,33.6288047,-117.6632943
MLS Listing,,Townhouse,10158 Decima,Westminster,CA,92683,799999,3,2.0,"68 - N of Heil, S of Blsa, E of Brookhrst, W of Ha",1395,2249,1974,2,573,395,Pre On-Market,March-7-2026 12:00 PM,March-7-2026 04:00 PM,https://www.redfin.com/CA/Westminster/10158-Decima-Dr-92683/home/3520048,CRMLS,OC26042704,N,Y,33.7407714,-117.9520061
MLS Listing,,Single Family Residential,16 Woodsong,Rancho Santa Margarita,CA,92688,1375000,4,2.5,California Somerset (CASM),2201,4590,1996,2,625,174,Pre On-Market,March-7-2026 12:00 PM,March-7-2026 04:00 PM,https://www.redfin.com/CA/Rancho-Santa-Margarita/16-Woodsong-92688/home/5025984,CRMLS,OC26042751,N,Y,33.5972587,-117.6217339
MLS Listing,,Condo/Co-op,7129 Cerritos Ave #7,Stanton,CA,90680,525000,1,1.0,Park Villas (PKVL),843,76591,1984,2,623,415,Active,February-28-2026 12:00 PM,February-28-2026 04:00 PM,https://www.redfin.com/CA/Stanton/7129-Cerritos-Ave-90680/unit-7/home/5669942,CRMLS,PW26039149,N,Y,33.8105195,-118.0089881
MLS Listing,,Single Family Residential,12 Foxglove,Irvine,CA,92612,1780000,4,2.5,Village II (V2),1892,3486,1968,2,941,276,Active,,,https://www.redfin.com/CA/Irvine/12-Foxglove-Way-92612/home/4700953,CRMLS,OC26042725,N,Y,33.6601401,-117.8264779
MLS Listing,,Condo/Co-op,5842 Portsmouth #282,Yorba Linda,CA,92887,499800,2,2.0,Village I (VIL1),963,124709,1986,2,519,561,Active,,,https://www.redfin.com/CA/Yorba-Linda/5842-Portsmouth-Rd-92887/unit-282/home/5532010,CRMLS,PW26042749,N,Y,33.872438,-117.722703
MLS Listing,,Single Family Residential,17413 Siena,Fountain Valley,CA,92708,2395000,4,4.0,699 - Not Defined,3408,5951,2024,2,703,50,Active,February-28-2026 01:00 PM,February-28-2026 04:00 PM,https://www.redfin.com/CA/Fountain-Valley/17413-Siena-Ln-92708/home/188033038,CRMLS,PW26042797,N,Y,33.710229,-117.957661
MLS Listing,,Single Family Residential,315 S Benwood,Anaheim,CA,92804,998000,3,1.5,79 - Anaheim West of Harbor,1544,7312,1955,2,646,,Active,,,https://www.redfin.com/CA/Anaheim/315-S-Benwood-Dr-92804/home/3577482,CRMLS,PW26041066,N,Y,33.8273679,-117.9860632
MLS Listing,,Single Family Residential,320 Heliotrope Ave,Corona Del Mar,CA,92625,5250000,4,3.5,Corona del Mar South of PCH (CDMS),3100,3540,2006,2,1694,,Active,,,https://www.redfin.com/CA/Corona-del-Mar/320-Heliotrope-Ave-92625/home/17474008,CRMLS,OC26038961,N,Y,33.5975046,-117.8744709
MLS Listing,,Single Family Residential,8 Saint Tropez,Laguna Niguel,CA,92677,8995000,6,7.5,Laguna Sur (LS),6636,21600,1994,2,1355,276,Active,February-28-2026 01:00 PM,February-28-2026 04:00 PM,https://www.redfin.com/CA/Laguna-Niguel/8-Saint-Tropez-92677/home/4940327,CRMLS,WS26042497,N,Y,33.5117357,-117.7385379
MLS Listing,,Townhouse,25851 Cordova,Laguna Hills,CA,92653,1199900,3,2.5,Bella Vista (BVI),2549,,1990,2,471,535,Active,February-28-2026 01:00 PM,February-28-2026 04:00 PM,https://www.redfin.com/CA/Laguna-Hills/25851-Cordova-92653/home/5599578,CRMLS,OC26040531,N,Y,33.5798977,-117.6791077
MLS Listing,,Single Family Residential,27369 Paseo La Serna,San Juan Capistrano,CA,92675,1099000,3,2.0,Mesa Vista Townhomes (MVI),1692,1742,1989,2,650,730,Active,,,https://www.redfin.com/CA/San-Juan-Capistrano/27369-Paseo-La-Serna-92675/home/5454189,CRMLS,OC26042656,N,Y,33.4902289,-117.6538786
MLS Listing,,Condo/Co-op,23330 Dover,Yorba Linda,CA,92887,570000,2,2.5,Other (OTHR),1112,86702,1987,2,513,561,Active,February-28-2026 01:00 PM,February-28-2026 04:00 PM,https://www.redfin.com/CA/Yorba-Linda/23330-Dover-Ln-92887/home/200680268,CRMLS,WS26039719,N,Y,33.8719402,-117.7260973
MLS Listing,,Condo/Co-op,1632 Doheny Way,Dana Point,CA,92629,1185000,1,1.0,Other (OTHR),901,,2018,2,1315,428,Pre On-Market,,,https://www.redfin.com/CA/Dana-Point/1632-Doheny-Way-92629/home/176995067,CRMLS,NP26042738,N,Y,33.4647901,-117.683876
MLS Listing,,Townhouse,8142 E Naples Ln,Anaheim,CA,92808,715000,2,2.5,Summit Renaissance (SMRN),994,,1996,2,719,467,Active,,,https://www.redfin.com/CA/Anaheim/8142-E-Naples-Ln-92808/home/5345863,CRMLS,PW26040815,N,Y,33.848521,-117.737521
MLS Listing,,Townhouse,285 Vista Dr #62,La Habra,CA,90631,887000,3,3.5,Other (OTHR),1585,,2024,2,560,340,Active,February-28-2026 12:00 PM,February-28-2026 04:00 PM,https://www.redfin.com/CA/La-Habra/285-Vista-Dr-90631/unit-62/home/200625111,CRMLS,PW26042506,N,Y,33.9179264,-117.9484423
MLS Listing,,Single Family Residential,730 S Quail,Anaheim,CA,92807,1534900,5,3.5,Feather Hill (FEAH),3205,9000,1977,2,479,100,Active,February-28-2026 12:00 PM,February-28-2026 04:00 PM,https://www.redfin.com/CA/Anaheim/730-S-Quail-Cir-92807/home/4336580,CRMLS,PW26010140,N,Y,33.8436889,-117.7565711
MLS Listing,,Single Family Residential,3221 Kempton Dr,Los Alamitos,CA,90720,1300000,3,2.0,51 - Rossmoor,1598,7210,1958,2,814,,Active,February-28-2026 04:30 PM,February-28-2026 05:30 PM,https://www.redfin.com/CA/Los-Alamitos/3221-Kempton-Dr-90720/home/3370589,CRMLS,NDP2601847,N,Y,33.7856022,-118.0774134
MLS Listing,,Single Family Residential,44 Jarano St,Rancho Mission Viejo,CA,92694,1550000,4,3.5,Reverie (ESREV),2581,4189,2018,2,601,357,Active,February-28-2026 01:00 PM,February-28-2026 03:00 PM,https://www.redfin.com/CA/Rancho-Mission-Viejo/44-Jarano-St-92694/home/167220455,CRMLS,OC26041487,N,Y,33.5556111,-117.5999006
MLS Listing,,Single Family Residential,34 Montgomery,Newport Beach,CA,92660,5999888,5,4.5,Lucera (BCYL),4464,7259,1999,2,1344,475,Pre On-Market,,,https://www.redfin.com/CA/Newport-Beach/34-Montgomery-92660/home/4727043,CRMLS,NP26041224,N,Y,33.6335491,-117.856006
MLS Listing,,Condo/Co-op,13740 El Dorado Dr Unit 26H,Seal Beach,CA,90740,379000,2,1.0,Leisure World (LW),750,,1960,2,505,619,Active,,,https://www.redfin.com/CA/Seal-Beach/13740-El-Dorado-Dr-90740/unit-26H/home/200317115,CRMLS,PW26024215,N,Y,33.7635898,-118.0892292
MLS Listing,,Single Family Residential,13731 Claremont St,Westminster,CA,92683,1449888,4,2.0,Sol Vista (SOLV),2100,6500,1964,2,690,,Active,February-28-2026 02:00 PM,February-28-2026 05:00 PM,https://www.redfin.com/CA/Westminster/13731-Claremont-St-92683/home/3908618,CRMLS,OC26041988,N,Y,33.7628283,-118.034643
MLS Listing,,Single Family Residential,26731 Carranza,Mission Viejo,CA,92691,1699980,3,2.0,MC - Mission Viejo Central,2114,8920,1972,2,804,28,Active,February-28-2026 01:00 PM,February-28-2026 04:00 PM,https://www.redfin.com/CA/Mission-Viejo/26731-Carranza-Dr-92691/home/5041736,CRMLS,OC26040990,N,Y,33.60715,-117.6639023
MLS Listing,,Single Family Residential,30162 Silverado Cyn,Silverado,CA,92676,1149000,4,3.0,Silverado (SC),1615,14040,1943,2,711,,Active,March-1-2026 12:00 PM,March-1-2026 03:00 PM,https://www.redfin.com/CA/Silverado/30162-Silverado-Canyon-Rd-92676/home/3501777,CRMLS,OC26014148,N,Y,33.746066,-117.6044523
MLS Listing,,Condo/Co-op,75 Grenada St,Laguna Niguel,CA,92677,619990,2,2.0,Crystal Cay (LH) (CC),957,871,1984,2,648,662,Active,,,https://www.redfin.com/CA/Laguna-Niguel/75-Grenada-St-92677/home/185774931,CRMLS,OC26041436,N,Y,33.526718,-117.6832837
MLS Listing,,Single Family Residential,151 S Parker St,Orange,CA,92868,1599000,5,3.0,OTO - Old Towne Orange,1991,6325,1956,2,803,,Active,,,https://www.redfin.com/CA/Orange/151-S-Parker-St-92868/home/4425598,CRMLS,PW26033447,N,Y,33.7869321,-117.8594264
MLS Listing,,Condo/Co-op,308 E Whittier Blvd,La Habra,CA,90631,719990,3,3.0,Other (OTHR),1446,,2025,2,498,259,Active,March-7-2026 11:00 AM,March-7-2026 04:00 PM,https://www.redfin.com/CA/La-Habra/308-E-Whittier-Blvd-90631/home/200679291,CRMLS,OC26042657,N,Y,33.938748,-117.9435241
MLS Listing,,Single Family Residential,5174 Fox Hls,Buena Park,CA,90621,1700000,4,3.0,Los Coyotes Country Club Homes (LYCC),2590,13200,1957,2,656,,Active,,,https://www.redfin.com/CA/Buena-Park/5174-Fox-Hills-Ave-90621/home/4100468,CRMLS,RS26042089,N,Y,33.885693,-117.9887665
MLS Listing,,Single Family Residential,27172 Valleymont Rd,Lake Forest,CA,92630,1249000,4,3.0,Wind Rows (WR),1644,5187,1979,2,760,,Active,March-1-2026 11:00 AM,March-1-2026 02:00 PM,https://www.redfin.com/CA/Lake-Forest/27172-Valleymont-Rd-92630/home/5112634,CRMLS,OC26027661,N,Y,33.6539655,-117.6566689
MLS Listing,,Condo/Co-op,312 E Whittier Blvd,La Habra,CA,90631,759990,3,3.5,Other (OTHR),1705,,2025,2,446,259,Active,March-7-2026 11:00 AM,March-7-2026 04:00 PM,https://www.redfin.com/CA/La-Habra/312-E-Whittier-Blvd-90631/home/200679157,CRMLS,OC26042672,N,Y,33.9387476,-117.9434468
MLS Listing,,Single Family Residential,7802 Darwin Ave,Midway City,CA,92655,1069000,3,2.0,Other (OTHR),1297,7200,1956,2,824,,Active,February-28-2026 01:00 PM,February-28-2026 04:00 PM,https://www.redfin.com/CA/Midway-City/7802-Darwin-Ave-92655/home/3718743,CRMLS,OC26038409,N,Y,33.7381097,-117.9928008
MLS Listing,,Condo/Co-op,2156 E Via Mariposa Unit H,Laguna Woods,CA,92637,339900,2,1.0,Other (OTHR),866,,1968,2,392,1000,Active,February-28-2026 01:00 PM,February-28-2026 03:00 PM,https://www.redfin.com/CA/Laguna-Woods/2156-Via-Mariposa-E-92637/unit-H/home/21993715,CRMLS,OC26042521,N,Y,33.6159291,-117.7144742
MLS Listing,,Mobile/Manufactured Home,19361 Brookhurst,Huntington Beach,CA,92646,350000,3,2.0,Rancho huntington,1647,965756,2013,2,213,,Active,,,https://www.redfin.com/CA/Huntington-Beach/19361-Brookhurst-St-92646/home/58552094,CRMLS,OC26042674,N,Y,33.681298,-117.956257
MLS Listing,,Condo/Co-op,2960 Champion Way #709,Tustin,CA,92782,799888,2,2.0,Rancho Veracruz (RV),1047,90291,1992,2,764,435,Active,February-28-2026 01:00 PM,February-28-2026 04:00 PM,https://www.redfin.com/CA/Tustin/2960-Champion-Way-92782/unit-709/home/5622196,CRMLS,TR26037629,N,Y,33.7393031,-117.7772481
MLS Listing,,Condo/Co-op,155 Zephyr Run,Tustin,CA,92782,1250000,3,3.5,TF - Tustin Field,1958,,2004,2,638,311,Pre On-Market,,,https://www.redfin.com/CA/Tustin/155-Zephyr-Run-92782/home/5981760,CRMLS,DW26042504,N,Y,33.7038136,-117.8004206
MLS Listing,,Mobile/Manufactured Home,23301 Ridge Route Dr #56,Laguna Hills,CA,92653,375000,3,2.0,Laguna Hills Estates,1876,,1987,2,200,,Pre On-Market,March-7-2026 01:00 PM,March-7-2026 04:00 PM,https://www.redfin.com/CA/Laguna-Hills/23301-Ridge-Route-Dr-92653/unit-56/home/5140919,CRMLS,OC26042583,N,Y,33.622887,-117.721341
MLS Listing,,Townhouse,522 S Brea,Brea,CA,92821,789000,3,2.0,86 - Brea,1580,121056,2007,2,499,417,Pre On-Market,,,https://www.redfin.com/CA/Brea/522-S-Brea-Blvd-92821/home/17470614,CRMLS,TR26042589,N,Y,33.912047,-117.902181
MLS Listing,,Townhouse,2 Lansdale Ct,Ladera Ranch,CA,92694,995000,4,3.0,Sycamore Grove (SYGV),1804,1000,2001,2,552,702,Active,February-28-2026 01:00 PM,February-28-2026 04:00 PM,https://www.redfin.com/CA/Ladera-Ranch/2-Lansdale-Ct-92694/home/5839624,CRMLS,OC26041680,N,Y,33.5675702,-117.6418289
MLS Listing,,Single Family Residential,15 Gala Ct,Aliso Viejo,CA,92656,1550000,4,2.5,Promenade (PROM),1966,3400,2001,2,788,113,Active,February-28-2026 01:00 PM,February-28-2026 04:00 PM,https://www.redfin.com/CA/Aliso-Viejo/15-Gala-Ct-92656/home/5815880,CRMLS,OC26032014,N,Y,33.5777176,-117.7324121
MLS Listing,,Single Family Residential,420 S Rolling Hls,Anaheim,CA,92807,1500000,5,3.0,Other (OTHR),3032,7931,1972,2,495,,Active,February-28-2026 12:00 PM,February-28-2026 04:00 PM,https://www.redfin.com/CA/Anaheim/420-S-Rolling-Hills-Pl-92807/home/4322926,CRMLS,PW26031643,N,Y,33.8444452,-117.8022966
MLS Listing,,Single Family Residential,2836 Portola,Costa Mesa,CA,92626,1499900,4,2.0,Mesa Del Mar (MDMA),1616,6975,1960,2,928,,Active,February-28-2026 12:00 PM,February-28-2026 03:00 PM,https://www.redfin.com/CA/Costa-Mesa/2836-Portola-Dr-92626/home/3708775,CRMLS,PW26042207,N,Y,33.6751653,-117.8911181
MLS Listing,,Multi-Family (2-4 Unit),2785 Solana,Laguna Beach,CA,92651,1999000,4,2.0,South Laguna Bluffs (SLB),1579,2178,1959,2,1266,,Active,,,https://www.redfin.com/CA/Laguna-Beach/2785-Solana-Way-92651/home/4933911,CRMLS,PW26042554,N,Y,33.521752,-117.7624
MLS Listing,,Single Family Residential,9862 Royal Palm,Garden Grove,CA,92841,1298000,3,2.0,Other (OTHR),1479,10554,1954,2,878,,Active,,,https://www.redfin.com/CA/Garden-Grove/9862-Royal-Palm-Blvd-92841/home/3648293,CRMLS,PW26040673,N,Y,33.7941892,-117.9609957
MLS Listing,,Condo/Co-op,10361 Garden Grove Blvd #50,Garden Grove,CA,92843,679000,2,2.0,"Garden Grove S of Chapman, W of Euclid",1154,110229,1990,2,588,426,Active,,,https://www.redfin.com/CA/Garden-Grove/10361-Garden-Grove-Blvd-92843/unit-50/home/5584070,TheMLS,26657021,N,Y,33.7745249,-117.9519128
MLS Listing,,Condo/Co-op,6600 Warner Ave #162,Huntington Beach,CA,92647,450000,1,1.0,Villa Warner (VWAR),785,471456,1969,2,573,549,Active,February-28-2026 12:00 PM,February-28-2026 03:00 PM,https://www.redfin.com/CA/Huntington-Beach/6600-Warner-Ave-92647/unit-162/home/5558261,CRMLS,OC26041716,N,Y,33.714264,-118.014104
MLS Listing,,Single Family Residential,24 Water Lily,Trabuco Canyon,CA,92679,2649000,4,4.5,Southern Hills Encore (SOUE),4005,7170,1999,2,661,385,Active,February-28-2026 01:00 PM,February-28-2026 04:00 PM,https://www.redfin.com/CA/Trabuco-Canyon/24-Water-Lily-Way-92679/home/5013088,CRMLS,OC26036895,N,Y,33.5726724,-117.5877775
MLS Listing,,Single Family Residential,3407 W Oceanfront,Newport Beach,CA,92663,12750000,3,3.0,West Newport Beach (WSNB),2741,2625,2007,2,4652,,Active,,,https://www.redfin.com/CA/Newport-Beach/3407-W-Oceanfront-92663/home/4576586,CRMLS,NP26042194,N,Y,33.6155248,-117.9347092
MLS Listing,,Single Family Residential,7571 San Rafael,Buena Park,CA,90620,935000,3,2.0,Buena Park Estates 1 (BPE1),1364,6600,1961,2,685,,Active,February-28-2026 01:00 PM,February-28-2026 04:00 PM,https://www.redfin.com/CA/Buena-Park/7571-San-Rafael-Dr-90620/home/4041020,CRMLS,PW26036732,N,Y,33.852533,-118.024563
MLS Listing,,Single Family Residential,3809 Lariat Pl,Fullerton,CA,92835,1180000,4,2.0,Sunny Hills (SUNH),2136,7350,1977,2,552,,Active,,,https://www.redfin.com/CA/Fullerton/3809-Lariat-Pl-92835/home/4111979,CRMLS,OC26041287,N,Y,33.9150591,-117.930253
MLS Listing,,Condo/Co-op,215 Lonetree,Irvine,CA,92603,1575000,2,2.0,Whispering Glen (WHGL),1643,68270,2003,2,959,344,Active,February-28-2026 01:00 PM,February-28-2026 04:00 PM,https://www.redfin.com/CA/Irvine/215-Lonetree-92603/home/5943858,CRMLS,OC26039299,N,Y,33.626681,-117.8286756
MLS Listing,,Single Family Residential,1342 E Chapman,Orange,CA,92866,1299000,3,1.5,OTO - Old Towne Orange,1725,7405,1947,2,753,,Active,,,https://www.redfin.com/CA/Orange/1342-E-Chapman-Ave-92866/home/200676350,CRMLS,PW26041116,N,Y,33.7876039,-117.839118
MLS Listing,,Single Family Residential,1640 Sheffield,La Habra,CA,90631,1175000,4,2.5,Other (OTHR),2302,6696,1964,2,510,,Active,,,https://www.redfin.com/CA/La-Habra/1640-Sheffield-Dr-90631/home/3111918,CRMLS,IV26041807,N,Y,33.9213934,-117.9649156
MLS Listing,,Single Family Residential,8 Rosings,Mission Viejo,CA,92692,1350000,4,2.5,699 - Not Defined,1823,4250,1994,2,741,143,Active,February-28-2026 01:00 PM,February-28-2026 04:00 PM,https://www.redfin.com/CA/Mission-Viejo/8-Rosings-92692/home/5053297,CRMLS,OC26028979,N,Y,33.5923143,-117.6439737
MLS Listing,,Condo/Co-op,75 Corsica Dr,Newport Beach,CA,92660,875000,2,1.5,Newport North Townhomes (NNTH),920,,1986,2,951,495,Active,February-28-2026 01:00 PM,February-28-2026 03:00 PM,https://www.redfin.com/CA/Newport-Beach/75-Corsica-Dr-92660/home/5302335,CRMLS,OC26031781,N,Y,33.641449,-117.8643306
MLS Listing,,Single Family Residential,25641 Rapid Falls Rd,Laguna Hills,CA,92653,2798888,5,3.0,Nellie Gail (NG),3438,21216,1985,2,814,200,Active,March-1-2026 01:00 PM,March-1-2026 04:00 PM,https://www.redfin.com/CA/Laguna-Hills/25641-Rapid-Falls-Rd-92653/home/4874623,CRMLS,OC26041945,N,Y,33.5668069,-117.6827837
MLS Listing,,Condo/Co-op,637 Liberation,Fullerton,CA,92832,945000,3,2.5,Other (OTHR),1704,2400,2014,2,555,309,Active,February-28-2026 01:00 PM,February-28-2026 04:00 PM,https://www.redfin.com/CA/Fullerton/637-Liberation-Way-92832/home/112719961,CRMLS,PW26039138,N,Y,33.8645381,-117.940787
MLS Listing,,Condo/Co-op,319 N Standard,Santa Ana,CA,92701,898000,4,3.5,Other (OTHR),2221,59014,2022,2,404,305,Active,February-28-2026 01:00 PM,February-28-2026 04:00 PM,https://www.redfin.com/CA/Santa-Ana/319-N-Standard-Ave-92701/home/188071151,CRMLS,CV26031452,N,Y,33.7472739,-117.8566374
MLS Listing,,Single Family Residential,15 Calle Gaulteria,San Clemente,CA,92673,2880000,5,3.5,Mirador (MIRD),3870,9428,2004,2,744,235,Active,,,https://www.redfin.com/CA/San-Clemente/15-Calle-Gaulteria-92673/home/5932475,CRMLS,OC26042010,N,Y,33.4789418,-117.6059097
MLS Listing,,Single Family Residential,27011 Moro Azul,Mission Viejo,CA,92691,1899000,5,3.0,Madrid (South) (MAS),3055,7366,1976,2,622,145,Active,February-28-2026 01:00 PM,February-28-2026 04:00 PM,https://www.redfin.com/CA/Mission-Viejo/27011-Moro-Azul-92691/home/5018004,CRMLS,LG26040208,N,Y,33.5787105,-117.6594304
MLS Listing,,Single Family Residential,15 Ventada,Rancho Mission Viejo,CA,92694,2150000,4,3.0,Ventana (ESVENT),2537,4370,2015,2,847,299,Active,February-28-2026 01:00 PM,February-28-2026 04:00 PM,https://www.redfin.com/CA/Rancho-Mission-Viejo/15-Ventada-St-92694/home/112725771,CRMLS,OC26042108,N,Y,33.531667,-117.60505
MLS Listing,,Single Family Residential,2761 E Stearns E,Brea,CA,92821,2197000,5,4.5,Walden Estates (WALD),3877,7202,2005,2,567,194,Active,February-28-2026 12:00 PM,February-28-2026 04:00 PM,https://www.redfin.com/CA/Brea/2761-E-Stearns-St-92821/home/7201760,CRMLS,PW26027083,N,Y,33.9238769,-117.8610804
MLS Listing,,Single Family Residential,6051 Judwick Cir,Huntington Beach,CA,92648,1995000,4,2.5,Bolsa Landmark (BLAN),2612,6711,1978,2,764,,Active,February-28-2026 01:00 PM,February-28-2026 04:00 PM,https://www.redfin.com/CA/Huntington-Beach/6051-Judwick-Cir-92648/home/3835572,CRMLS,OC26041014,N,Y,33.6991449,-118.0227857
MLS Listing,,Condo/Co-op,28 Poppy,Irvine,CA,92618,998000,2,2.0,Montilla (MONT),1371,13217,2001,2,728,475,Active,February-28-2026 01:00 PM,February-28-2026 04:00 PM,https://www.redfin.com/CA/Irvine/28-Poppy-92618/home/200611539,CRMLS,SB26014489,N,Y,33.6646769,-117.7863988
MLS Listing,,Single Family Residential,3268 Michigan,Costa Mesa,CA,92626,1195000,3,2.0,C1 - Mesa Verde,1614,6100,1959,2,740,,Active,,,https://www.redfin.com/CA/Costa-Mesa/3268-Michigan-Ave-92626/home/3692284,CRMLS,LG26041897,N,Y,33.6903586,-117.9267859
MLS Listing,,Single Family Residential,1762 Terry Lynn Dr,Santa Ana,CA,92705,2800000,5,3.0,NTS - North Tustin,3589,39700,1962,2,780,,Active,,,https://www.redfin.com/CA/Santa-Ana/1762-Terry-Lynn-Dr-92705/home/4768133,CRMLS,PW26041508,N,Y,33.7621883,-117.7807733
MLS Listing,,Single Family Residential,7891 Comstock Cir,La Palma,CA,90623,1088899,3,2.0,Other (OTHR),1455,4900,1970,2,748,,Active,February-28-2026 01:00 PM,February-28-2026 04:00 PM,https://www.redfin.com/CA/La-Palma/7891-Comstock-Cir-90623/home/4036031,CRMLS,PW26040544,N,Y,33.8478293,-118.0343736
MLS Listing,,Condo/Co-op,18 Corniche Dr Unit B,Dana Point,CA,92629,625000,1,1.0,Monarch Hills Condos (MHC),735,952561,1989,2,850,653,Active,February-28-2026 12:00 AM,February-28-2026 11:59 PM,https://www.redfin.com/CA/Dana-Point/18-Corniche-Dr-92629/unit-B/home/5706373,CRMLS,IG26042348,N,Y,33.4883377,-117.71257
MLS Listing,,Single Family Residential,2170 S Euclid St,Anaheim,CA,92802,749900,2,2.0,Other (OTHR),1092,1972,1972,2,687,414,Active,February-28-2026 01:00 PM,February-28-2026 04:00 PM,https://www.redfin.com/CA/Anaheim/2170-S-Euclid-St-92802/home/3410429,CRMLS,IG26042423,N,Y,33.793403,-117.940898
MLS Listing,,Single Family Residential,1956 Rosemary Pl,Costa Mesa,CA,92627,2849000,3,2.5,Eastside South (ESCM),1642,7200,2021,2,1735,,Active,February-28-2026 01:00 PM,February-28-2026 04:00 PM,https://www.redfin.com/CA/Costa-Mesa/1956-Rosemary-Pl-92627/home/4595536,CRMLS,NP26040684,N,Y,33.6429509,-117.9122353
MLS Listing,,Single Family Residential,2221 E Nyon,Anaheim,CA,92806,1215000,4,2.5,78 - Anaheim East of Harbor,1973,5312,1971,2,616,,Pre On-Market,,,https://www.redfin.com/CA/Anaheim/2221-E-Nyon-Ave-92806/home/4004713,CRMLS,OC26042005,N,Y,33.8282242,-117.8857662
MLS Listing,,Single Family Residential,18162 Stratford Cir,Villa Park,CA,92861,3499000,5,5.0,Other (OTHR),4910,22800,2005,2,713,,Active,February-28-2026 01:00 PM,February-28-2026 04:00 PM,https://www.redfin.com/CA/Villa-Park/18162-Stratford-Cir-92861/home/4367416,CRMLS,OC26042280,N,Y,33.8125198,-117.8158706
MLS Listing,,Single Family Residential,23956 Copenhagen,Mission Viejo,CA,92691,1200000,4,3.0,Timberline (TL),1968,4701,1976,2,610,280,Active,February-28-2026 01:00 PM,February-28-2026 04:00 PM,https://www.redfin.com/CA/Mission-Viejo/23956-Copenhagen-St-92691/home/4842602,CRMLS,OC26009543,N,Y,33.6140253,-117.6866467
